{
"type": "FeatureCollection",
"crs": { "type": "name", "properties": { "name": "urn:ogc:def:crs:OGC:1.3:CRS84" } },
"features": [
{ "type": "Feature", "properties": { "OBJECTID": 1, "F_id": 1, "CITYZONE": "士林區", "NAME": "西歐", "S_NAME": "基河站", "SUPPLIER": "台塑", "ADDRESS": "承德路四段200號", "PHONE": "02-28815335", "DUTY_TIME": "24小時", "HAVEOIL": "Y", "HAVESELF": "Y", "ADDR_X": 302652.86507200002, "ADDR_Y": 2775582.7382899998 }, "geometry": { "type": "Point", "coordinates": [ 121.52199147800002, 25.087606188000052 ] } },
{ "type": "Feature", "properties": { "OBJECTID": 2, "F_id": 2, "CITYZONE": "大同區", "NAME": "中油", "S_NAME": "民權西路站", "SUPPLIER": "中油直營站", "ADDRESS": "民權西路194號", "PHONE": "02-25575809", "DUTY_TIME": "24小時", "HAVEOIL": "Y", "HAVESELF": null, "ADDR_X": 301878.70679199998, "ADDR_Y": 2772826.4109800002 }, "geometry": { "type": "Point", "coordinates": [ 121.51421291700001, 25.062749069000063 ] } },
{ "type": "Feature", "properties": { "OBJECTID": 3, "F_id": 3, "CITYZONE": "大安區", "NAME": "中油", "S_NAME": "龍安站", "SUPPLIER": "中油直營站", "ADDRESS": "和平東路二段2號", "PHONE": "02-23631735", "DUTY_TIME": "24小時", "HAVEOIL": "Y", "HAVESELF": "Y", "ADDR_X": 304016.33302399999, "ADDR_Y": 2768731.6261900002 }, "geometry": { "type": "Point", "coordinates": [ 121.53523949000009, 25.025706744000047 ] } },
{ "type": "Feature", "properties": { "OBJECTID": 4, "F_id": 4, "CITYZONE": "大安區", "NAME": "勝利身心障礙潛能發展中心", "S_NAME": "勝利站", "SUPPLIER": "中油加盟站", "ADDRESS": "建國南路二段75之1號", "PHONE": "02-27555499", "DUTY_TIME": "24小時", "HAVEOIL": "Y", "HAVESELF": null, "ADDR_X": 304275.87835900002, "ADDR_Y": 2769314.5333099999 }, "geometry": { "type": "Point", "coordinates": [ 121.53783413300005, 25.030959917000075 ] } },
{ "type": "Feature", "properties": { "OBJECTID": 5, "F_id": 5, "CITYZONE": "大安區", "NAME": "中油", "S_NAME": "金山南路站", "SUPPLIER": "中油直營站", "ADDRESS": "金山南路二段77號", "PHONE": "02-23518346", "DUTY_TIME": "7~24時", "HAVEOIL": "Y", "HAVESELF": "Y", "ADDR_X": 303200.14976, "ADDR_Y": 2769366.0714099999 }, "geometry": { "type": "Point", "coordinates": [ 121.52717680000001, 25.031463392000035 ] } },
{ "type": "Feature", "properties": { "OBJECTID": 6, "F_id": 6, "CITYZONE": "大安區", "NAME": "中油", "S_NAME": "新生南路站", "SUPPLIER": "中油直營站", "ADDRESS": "仁愛路三段1號", "PHONE": "02-27112316", "DUTY_TIME": "7~22時", "HAVEOIL": "Y", "HAVESELF": null, "ADDR_X": 303802.33806699998, "ADDR_Y": 2770143.7318500001 }, "geometry": { "type": "Point", "coordinates": [ 121.53317421300005, 25.038462785000036 ] } },
{ "type": "Feature", "properties": { "OBJECTID": 7, "F_id": 7, "CITYZONE": "大安區", "NAME": "陽光社會福利基金會", "S_NAME": "陽光站", "SUPPLIER": "中油加盟站", "ADDRESS": "建國南路一段57之1號", "PHONE": "02-27529928", "DUTY_TIME": "24小時", "HAVEOIL": "Y", "HAVESELF": null, "ADDR_X": 304145.76516000001, "ADDR_Y": 2770803.4047099999 }, "geometry": { "type": "Point", "coordinates": [ 121.53660332900006, 25.044406018000075 ] } },
{ "type": "Feature", "properties": { "OBJECTID": 8, "F_id": 8, "CITYZONE": "大安區", "NAME": "中油", "S_NAME": "富陽街站", "SUPPLIER": "中油直營站", "ADDRESS": "富陽街129號", "PHONE": "02-27324229", "DUTY_TIME": "24小時", "HAVEOIL": "Y", "HAVESELF": "Y", "ADDR_X": 306204.34993099998, "ADDR_Y": 2768009.1299000001 }, "geometry": { "type": "Point", "coordinates": [ 121.55688998700009, 25.019104457000026 ] } },
{ "type": "Feature", "properties": { "OBJECTID": 9, "F_id": 9, "CITYZONE": "大安區", "NAME": "中油", "S_NAME": "基隆路站", "SUPPLIER": "中油直營站", "ADDRESS": "基隆路二段162號", "PHONE": "02-27383992", "DUTY_TIME": "24小時", "HAVEOIL": "Y", "HAVESELF": null, "ADDR_X": 306091.86454400001, "ADDR_Y": 2768957.87097 }, "geometry": { "type": "Point", "coordinates": [ 121.55581406100009, 25.027673793000076 ] } },
{ "type": "Feature", "properties": { "OBJECTID": 10, "F_id": 10, "CITYZONE": "中山區", "NAME": "中油", "S_NAME": "中崙站", "SUPPLIER": "中油直營站", "ADDRESS": "八德路二段214號", "PHONE": "02-27712548", "DUTY_TIME": "24小時", "HAVEOIL": "Y", "HAVESELF": "Y", "ADDR_X": 304447.20127100003, "ADDR_Y": 2771021.22596 }, "geometry": { "type": "Point", "coordinates": [ 121.53959916700001, 25.046361673000035 ] } },
{ "type": "Feature", "properties": { "OBJECTID": 11, "F_id": 11, "CITYZONE": "中山區", "NAME": "中油", "S_NAME": "建國北路站", "SUPPLIER": "中油直營站", "ADDRESS": "建國北路三段91之1號", "PHONE": "02-25014338", "DUTY_TIME": "24小時", "HAVEOIL": "Y", "HAVESELF": "Y", "ADDR_X": 304151.40576200001, "ADDR_Y": 2773160.7864100002 }, "geometry": { "type": "Point", "coordinates": [ 121.53675191200011, 25.065688065000074 ] } },
{ "type": "Feature", "properties": { "OBJECTID": 12, "F_id": 12, "CITYZONE": "中山區", "NAME": "中油", "S_NAME": "吉林路站", "SUPPLIER": "中油直營站", "ADDRESS": "吉林路31號", "PHONE": "02-25417952", "DUTY_TIME": "7~22時", "HAVEOIL": "Y", "HAVESELF": null, "ADDR_X": 303492.1964, "ADDR_Y": 2771521.8586400002 }, "geometry": { "type": "Point", "coordinates": [ 121.53015434800011, 25.050915427000064 ] } },
{ "type": "Feature", "properties": { "OBJECTID": 13, "F_id": 13, "CITYZONE": "中山區", "NAME": "中油", "S_NAME": "大直站", "SUPPLIER": "中油直營站", "ADDRESS": "明水路661號", "PHONE": "02-25320154", "DUTY_TIME": "24小時", "HAVEOIL": "Y", "HAVESELF": "Y", "ADDR_X": 305534.57598899998, "ADDR_Y": 2775227.7746799998 }, "geometry": { "type": "Point", "coordinates": [ 121.55054491600004, 25.084298378000028 ] } },
{ "type": "Feature", "properties": { "OBJECTID": 14, "F_id": 14, "CITYZONE": "中山區", "NAME": "中油", "S_NAME": "新生北路站", "SUPPLIER": "中油直營站", "ADDRESS": "新生北路二段71號", "PHONE": "02-25815206", "DUTY_TIME": "24小時", "HAVEOIL": "Y", "HAVESELF": "Y", "ADDR_X": 303274.494244, "ADDR_Y": 2772142.7197699999 }, "geometry": { "type": "Point", "coordinates": [ 121.52802081600009, 25.056528204000074 ] } },
{ "type": "Feature", "properties": { "OBJECTID": 15, "F_id": 15, "CITYZONE": "中山區", "NAME": "長安", "S_NAME": "長安站", "SUPPLIER": "中油加盟站", "ADDRESS": "長安東路二段34號", "PHONE": "02-25671667", "DUTY_TIME": "24小時", "HAVEOIL": "Y", "HAVESELF": null, "ADDR_X": 303608.45296099997, "ADDR_Y": 2771237.91249 }, "geometry": { "type": "Point", "coordinates": [ 121.5312954640001, 25.04834786300006 ] } },
{ "type": "Feature", "properties": { "OBJECTID": 16, "F_id": 16, "CITYZONE": "北投區", "NAME": "鈉叡股份有限公司", "S_NAME": "溫馨加油加氣站", "SUPPLIER": "中油加盟站", "ADDRESS": "承德路六段359號", "PHONE": "02-28285798", "DUTY_TIME": "24小時", "HAVEOIL": "Y", "HAVESELF": null, "ADDR_X": 301547.70058200002, "ADDR_Y": 2777668.9872499998 }, "geometry": { "type": "Point", "coordinates": [ 121.51111367200008, 25.106478781000078 ] } },
{ "type": "Feature", "properties": { "OBJECTID": 17, "F_id": 17, "CITYZONE": "士林區", "NAME": "全國", "S_NAME": "全國洲美站", "SUPPLIER": "台塑", "ADDRESS": "延平北路六段505號", "PHONE": "02-88113031", "DUTY_TIME": "24小時", "HAVEOIL": "Y", "HAVESELF": "Y", "ADDR_X": 300254.78569799999, "ADDR_Y": 2776183.8039899999 }, "geometry": { "type": "Point", "coordinates": [ 121.49824003000003, 25.093114295000078 ] } },
{ "type": "Feature", "properties": { "OBJECTID": 18, "F_id": 18, "CITYZONE": "松山區", "NAME": "中油", "S_NAME": "濱江大直橋加油加氣站", "SUPPLIER": "中油直營站", "ADDRESS": "濱江街373號", "PHONE": "02-25177975", "DUTY_TIME": "24小時", "HAVEOIL": "Y", "HAVESELF": "Y", "ADDR_X": 305682.725179, "ADDR_Y": 2773937.9216300002 }, "geometry": { "type": "Point", "coordinates": [ 121.55196133400011, 25.072648301000072 ] } },
{ "type": "Feature", "properties": { "OBJECTID": 19, "F_id": 19, "CITYZONE": "士林區", "NAME": "中油", "S_NAME": "社子站", "SUPPLIER": "中油直營站", "ADDRESS": "重慶北路四段198號", "PHONE": "02-28122647", "DUTY_TIME": "24小時", "HAVEOIL": "Y", "HAVESELF": null, "ADDR_X": 301618.43622700003, "ADDR_Y": 2775298.9964000001 }, "geometry": { "type": "Point", "coordinates": [ 121.51172600200005, 25.08508031100007 ] } },
{ "type": "Feature", "properties": { "OBJECTID": 20, "F_id": 20, "CITYZONE": "士林區", "NAME": "中油", "S_NAME": "福林站", "SUPPLIER": "中油直營站", "ADDRESS": "中山北路五段465號", "PHONE": "02-28812420", "DUTY_TIME": "24小時", "HAVEOIL": "Y", "HAVESELF": "Y", "ADDR_X": 303185.30172799999, "ADDR_Y": 2776809.0463899998 }, "geometry": { "type": "Point", "coordinates": [ 121.52731724000012, 25.098658495000052 ] } },
{ "type": "Feature", "properties": { "OBJECTID": 21, "F_id": 21, "CITYZONE": "士林區", "NAME": "中油", "S_NAME": "陽明山站", "SUPPLIER": "中油直營站", "ADDRESS": "(陽明山)格致路3號", "PHONE": "02-28616052", "DUTY_TIME": "24小時", "HAVEOIL": "Y", "HAVESELF": null, "ADDR_X": 305028.19108299998, "ADDR_Y": 2780897.5584100001 }, "geometry": { "type": "Point", "coordinates": [ 121.54575221700009, 25.135502805000044 ] } },
{ "type": "Feature", "properties": { "OBJECTID": 22, "F_id": 22, "CITYZONE": "士林區", "NAME": "中油", "S_NAME": "文林路站", "SUPPLIER": "中油直營站", "ADDRESS": "文林路100號", "PHONE": "02-28817934", "DUTY_TIME": "24小時", "HAVEOIL": "Y", "HAVESELF": "Y", "ADDR_X": 303066.04077999998, "ADDR_Y": 2775570.7952299998 }, "geometry": { "type": "Point", "coordinates": [ 121.52608703500005, 25.087483902000031 ] } },
{ "type": "Feature", "properties": { "OBJECTID": 23, "F_id": 23, "CITYZONE": "士林區", "NAME": "西歐", "S_NAME": "士林站", "SUPPLIER": "台塑", "ADDRESS": "中山北路五段570號", "PHONE": "02-28812342", "DUTY_TIME": "24小時", "HAVEOIL": "Y", "HAVESELF": null, "ADDR_X": 303279.92734499997, "ADDR_Y": 2776467.6784100002 }, "geometry": { "type": "Point", "coordinates": [ 121.52824215900011, 25.095573328000057 ] } },
{ "type": "Feature", "properties": { "OBJECTID": 24, "F_id": 24, "CITYZONE": "士林區", "NAME": "同宏", "S_NAME": "芝山站", "SUPPLIER": "台塑", "ADDRESS": "至誠路二段40號", "PHONE": "02-28320320", "DUTY_TIME": "24小時", "HAVEOIL": "Y", "HAVESELF": null, "ADDR_X": 303325.93338300003, "ADDR_Y": 2777168.7402499998 }, "geometry": { "type": "Point", "coordinates": [ 121.52872547600009, 25.101900803000035 ] } },
{ "type": "Feature", "properties": { "OBJECTID": 25, "F_id": 25, "CITYZONE": "士林區", "NAME": "全國", "S_NAME": "全國台北交流道站", "SUPPLIER": "台塑", "ADDRESS": "重慶北路四段141號", "PHONE": "02-28118028", "DUTY_TIME": "24小時", "HAVEOIL": "Y", "HAVESELF": "Y", "ADDR_X": 301649.44506599999, "ADDR_Y": 2775044.23918 }, "geometry": { "type": "Point", "coordinates": [ 121.51202383400005, 25.082779323000068 ] } },
{ "type": "Feature", "properties": { "OBJECTID": 26, "F_id": 26, "CITYZONE": "北投區", "NAME": "富叡", "S_NAME": "關渡大業站", "SUPPLIER": "中油加盟站", "ADDRESS": "大業路157號", "PHONE": "02-28983720", "DUTY_TIME": "24小時", "HAVEOIL": "Y", "HAVESELF": null, "ADDR_X": 300284.15345300001, "ADDR_Y": 2779656.45732 }, "geometry": { "type": "Point", "coordinates": [ 121.49865833100012, 25.12446410900003 ] } },
{ "type": "Feature", "properties": { "OBJECTID": 27, "F_id": 27, "CITYZONE": "北投區", "NAME": "晶叡", "S_NAME": "石牌站", "SUPPLIER": "中油加盟站", "ADDRESS": "承德路七段139號", "PHONE": "02-28206995", "DUTY_TIME": "24小時", "HAVEOIL": "Y", "HAVESELF": null, "ADDR_X": 301303.10996700003, "ADDR_Y": 2778336.1691399999 }, "geometry": { "type": "Point", "coordinates": [ 121.5087134690001, 25.112510366000038 ] } },
{ "type": "Feature", "properties": { "OBJECTID": 28, "F_id": 28, "CITYZONE": "中山區", "NAME": "濱江", "S_NAME": "濱江站", "SUPPLIER": "中油加盟站", "ADDRESS": "濱江街195號", "PHONE": "02-25057789", "DUTY_TIME": "24小時", "HAVEOIL": "Y", "HAVESELF": null, "ADDR_X": 304426.00510800001, "ADDR_Y": 2773940.3589300001 }, "geometry": { "type": "Point", "coordinates": [ 121.53950449100012, 25.072716101000026 ] } },
{ "type": "Feature", "properties": { "OBJECTID": 29, "F_id": 29, "CITYZONE": "松山區", "NAME": "台亞", "S_NAME": "松山機場站", "SUPPLIER": "台塑直營站", "ADDRESS": "敦化北路342之1號", "PHONE": "02-25457180", "DUTY_TIME": "24小時", "HAVEOIL": "Y", "HAVESELF": "Y", "ADDR_X": 305544.89131099998, "ADDR_Y": 2772828.79709 }, "geometry": { "type": "Point", "coordinates": [ 121.55055033100007, 25.062640330000079 ] } },
{ "type": "Feature", "properties": { "OBJECTID": 30, "F_id": 30, "CITYZONE": "松山區", "NAME": "中油", "S_NAME": "復興北路站", "SUPPLIER": "中油直營站", "ADDRESS": "復興北路31號", "PHONE": "02-27112342", "DUTY_TIME": "7-23時", "HAVEOIL": "Y", "HAVESELF": "Y", "ADDR_X": 304859.821016, "ADDR_Y": 2771176.6463799998 }, "geometry": { "type": "Point", "coordinates": [ 121.54369448000011, 25.047749886000076 ] } },
{ "type": "Feature", "properties": { "OBJECTID": 31, "F_id": 31, "CITYZONE": "松山區", "NAME": "中油", "S_NAME": "民生東路站", "SUPPLIER": "中油直營站", "ADDRESS": "三民路126號", "PHONE": "02-27671664", "DUTY_TIME": "24小時", "HAVEOIL": "Y", "HAVESELF": "Y", "ADDR_X": 306890.23800200003, "ADDR_Y": 2772481.8888300001 }, "geometry": { "type": "Point", "coordinates": [ 121.56387031200006, 25.059458449000033 ] } },
{ "type": "Feature", "properties": { "OBJECTID": 32, "F_id": 32, "CITYZONE": "松山區", "NAME": "中油", "S_NAME": "光復北路站", "SUPPLIER": "中油直營站", "ADDRESS": "光復北路9號", "PHONE": "02-27674900", "DUTY_TIME": "24小時", "HAVEOIL": "Y", "HAVESELF": "Y", "ADDR_X": 306302.77352599998, "ADDR_Y": 2771324.5065600001 }, "geometry": { "type": "Point", "coordinates": [ 121.5580005380001, 25.049031727000056 ] } },
{ "type": "Feature", "properties": { "OBJECTID": 33, "F_id": 33, "CITYZONE": "松山區", "NAME": "全國", "S_NAME": "全國撫遠街站", "SUPPLIER": "台塑", "ADDRESS": "塔悠路99號", "PHONE": "02-27670389", "DUTY_TIME": "24小時", "HAVEOIL": "Y", "HAVESELF": "Y", "ADDR_X": 307526.67283499998, "ADDR_Y": 2771862.81458 }, "geometry": { "type": "Point", "coordinates": [ 121.57015226200008, 25.053845446000025 ] } },
{ "type": "Feature", "properties": { "OBJECTID": 34, "F_id": 34, "CITYZONE": "信義區", "NAME": "中油", "S_NAME": "松山路站", "SUPPLIER": "中油直營站", "ADDRESS": "松山路480號", "PHONE": "02-27297328", "DUTY_TIME": "24小時", "HAVEOIL": "Y", "HAVESELF": null, "ADDR_X": 308278.24903800001, "ADDR_Y": 2770309.4981999998 }, "geometry": { "type": "Point", "coordinates": [ 121.57753521100005, 25.039793535000058 ] } },
{ "type": "Feature", "properties": { "OBJECTID": 35, "F_id": 35, "CITYZONE": "大安區", "NAME": "中油", "S_NAME": "信義路站", "SUPPLIER": "中油直營站", "ADDRESS": "信義路四段374號", "PHONE": "02-27081235", "DUTY_TIME": "24小時", "HAVEOIL": "Y", "HAVESELF": "Y", "ADDR_X": 306462.17155000003, "ADDR_Y": 2769588.3809099998 }, "geometry": { "type": "Point", "coordinates": [ 121.55950910800004, 25.033352216000026 ] } },
{ "type": "Feature", "properties": { "OBJECTID": 36, "F_id": 36, "CITYZONE": "中山區", "NAME": "西歐", "S_NAME": "大直橋加油加氣站", "SUPPLIER": "台塑", "ADDRESS": "濱江街333號", "PHONE": "02-25033166", "DUTY_TIME": "24小時", "HAVEOIL": "Y", "HAVESELF": "Y", "ADDR_X": 305248.42953000002, "ADDR_Y": 2773915.8478000001 }, "geometry": { "type": "Point", "coordinates": [ 121.54765559900011, 25.072464966000041 ] } },
{ "type": "Feature", "properties": { "OBJECTID": 37, "F_id": 37, "CITYZONE": "中正區", "NAME": "中油", "S_NAME": "莒光路站", "SUPPLIER": "中油直營站", "ADDRESS": "莒光路2號", "PHONE": "02-23028385", "DUTY_TIME": "24小時", "HAVEOIL": "Y", "HAVESELF": "Y", "ADDR_X": 301194.32807300001, "ADDR_Y": 2769352.6589199998 }, "geometry": { "type": "Point", "coordinates": [ 121.50730061900003, 25.031411475000027 ] } },
{ "type": "Feature", "properties": { "OBJECTID": 38, "F_id": 38, "CITYZONE": "中正區", "NAME": "中油", "S_NAME": "汀州路站", "SUPPLIER": "中油直營站", "ADDRESS": "汀州路三段1號", "PHONE": "02-23655595", "DUTY_TIME": "24小時", "HAVEOIL": "Y", "HAVESELF": "Y", "ADDR_X": 303075.61584400001, "ADDR_Y": 2768170.0711599998 }, "geometry": { "type": "Point", "coordinates": [ 121.52589677800006, 25.02067031100006 ] } },
{ "type": "Feature", "properties": { "OBJECTID": 39, "F_id": 39, "CITYZONE": "中正區", "NAME": "中油", "S_NAME": "林森北路站", "SUPPLIER": "中油直營站", "ADDRESS": "林森北路11號", "PHONE": "02-23410686", "DUTY_TIME": "24小時", "HAVEOIL": "Y", "HAVESELF": "Y", "ADDR_X": 302869.14821100002, "ADDR_Y": 2770957.6495400001 }, "geometry": { "type": "Point", "coordinates": [ 121.52395795200005, 25.045843688000048 ] } },
{ "type": "Feature", "properties": { "OBJECTID": 40, "F_id": 40, "CITYZONE": "內湖區", "NAME": "台亞", "S_NAME": "台亞堤頂交流道加油站", "SUPPLIER": "台塑", "ADDRESS": "舊宗路二段111號", "PHONE": "02-87918388", "DUTY_TIME": "24小時", "HAVEOIL": "Y", "HAVESELF": "Y", "ADDR_X": 308001.46482, "ADDR_Y": 2773546.3332500001 }, "geometry": { "type": "Point", "coordinates": [ 121.57492870400006, 25.069025865000071 ] } },
{ "type": "Feature", "properties": { "OBJECTID": 41, "F_id": 41, "CITYZONE": "內湖區", "NAME": "中油", "S_NAME": "內湖站", "SUPPLIER": "中油直營站", "ADDRESS": "民權東路六段50號", "PHONE": "02-27920678", "DUTY_TIME": "24小時", "HAVEOIL": "Y", "HAVESELF": "Y", "ADDR_X": 308912.34095500002, "ADDR_Y": 2773492.7701699999 }, "geometry": { "type": "Point", "coordinates": [ 121.58395493400008, 25.068507068000031 ] } },
{ "type": "Feature", "properties": { "OBJECTID": 42, "F_id": 42, "CITYZONE": "內湖區", "NAME": "中油", "S_NAME": "東湖站", "SUPPLIER": "中油直營站", "ADDRESS": "康寧路三段225號", "PHONE": "02-26311524", "DUTY_TIME": "7~22時", "HAVEOIL": "Y", "HAVESELF": "Y", "ADDR_X": 311608.46964899998, "ADDR_Y": 2773919.5791199999 }, "geometry": { "type": "Point", "coordinates": [ 121.61069762000011, 25.072252689000038 ] } },
{ "type": "Feature", "properties": { "OBJECTID": 43, "F_id": 43, "CITYZONE": "內湖區", "NAME": "中油", "S_NAME": "內湖麗山街站", "SUPPLIER": "中油直營站", "ADDRESS": "內湖路一段362號", "PHONE": "02-26577339", "DUTY_TIME": "24小時", "HAVEOIL": "Y", "HAVESELF": "Y", "ADDR_X": 307606.37043299997, "ADDR_Y": 2774898.0791699998 }, "geometry": { "type": "Point", "coordinates": [ 121.57106915700001, 25.081244326000046 ] } },
{ "type": "Feature", "properties": { "OBJECTID": 44, "F_id": 44, "CITYZONE": "內湖區", "NAME": "協記", "S_NAME": "協記站", "SUPPLIER": "中油加盟站", "ADDRESS": "新明路305號", "PHONE": "02-27915409", "DUTY_TIME": "24小時", "HAVEOIL": "Y", "HAVESELF": null, "ADDR_X": 309013.96227000002, "ADDR_Y": 2772212.4631099999 }, "geometry": { "type": "Point", "coordinates": [ 121.58490731000006, 25.056944703000056 ] } },
{ "type": "Feature", "properties": { "OBJECTID": 45, "F_id": 45, "CITYZONE": "內湖區", "NAME": "康寧", "S_NAME": "康寧站", "SUPPLIER": "中油加盟站", "ADDRESS": "康寧路三段30號", "PHONE": "02-26328788", "DUTY_TIME": "24小時", "HAVEOIL": "Y", "HAVESELF": "Y", "ADDR_X": 311375.39336599997, "ADDR_Y": 2773881.3033099999 }, "geometry": { "type": "Point", "coordinates": [ 121.60838563400011, 25.071916629000043 ] } },
{ "type": "Feature", "properties": { "OBJECTID": 46, "F_id": 46, "CITYZONE": "內湖區", "NAME": "紫陽", "S_NAME": "紫陽站", "SUPPLIER": "中油加盟站", "ADDRESS": "文德路206號", "PHONE": "02-26579000", "DUTY_TIME": "24小時", "HAVEOIL": "Y", "HAVESELF": "Y", "ADDR_X": 308853.54044900002, "ADDR_Y": 2774579.5338300001 }, "geometry": { "type": "Point", "coordinates": [ 121.58341859600012, 25.078320470000051 ] } },
{ "type": "Feature", "properties": { "OBJECTID": 47, "F_id": 47, "CITYZONE": "內湖區", "NAME": "統一精工", "S_NAME": "統一精工內湖一站", "SUPPLIER": "中油加盟站", "ADDRESS": "新明路92號", "PHONE": "02-27929031", "DUTY_TIME": "24小時", "HAVEOIL": "Y", "HAVESELF": null, "ADDR_X": 309474.01191499998, "ADDR_Y": 2772511.6010599998 }, "geometry": { "type": "Point", "coordinates": [ 121.58947974700004, 25.059627243000023 ] } },
{ "type": "Feature", "properties": { "OBJECTID": 48, "F_id": 48, "CITYZONE": "內湖區", "NAME": "麗馳", "S_NAME": "麗馳站", "SUPPLIER": "中油加盟站", "ADDRESS": "舊宗路二段133號", "PHONE": "02-27925356", "DUTY_TIME": "24小時", "HAVEOIL": "Y", "HAVESELF": null, "ADDR_X": 308004.45283299999, "ADDR_Y": 2773627.75599 }, "geometry": { "type": "Point", "coordinates": [ 121.57496175300003, 25.069760822000035 ] } },
{ "type": "Feature", "properties": { "OBJECTID": 49, "F_id": 49, "CITYZONE": "內湖區", "NAME": "全國", "S_NAME": "全國民權站", "SUPPLIER": "台塑", "ADDRESS": "民權東路六段20號", "PHONE": "02-87922326", "DUTY_TIME": "24小時", "HAVEOIL": "Y", "HAVESELF": "Y", "ADDR_X": 308345.33766299998, "ADDR_Y": 2773259.42704 }, "geometry": { "type": "Point", "coordinates": [ 121.57832498100004, 25.066422483000053 ] } },
{ "type": "Feature", "properties": { "OBJECTID": 50, "F_id": 50, "CITYZONE": "內湖區", "NAME": "全國", "S_NAME": "文德站", "SUPPLIER": "台塑", "ADDRESS": "民權東路六段10號", "PHONE": "02-27938806", "DUTY_TIME": "24小時", "HAVEOIL": "Y", "HAVESELF": "Y", "ADDR_X": 308074.84148399998, "ADDR_Y": 2773171.9433800001 }, "geometry": { "type": "Point", "coordinates": [ 121.57564021100006, 25.065643113000078 ] } },
{ "type": "Feature", "properties": { "OBJECTID": 51, "F_id": 51, "CITYZONE": "內湖區", "NAME": "西歐", "S_NAME": "自強站", "SUPPLIER": "台塑", "ADDRESS": "內湖路一段146號", "PHONE": "02-26279311", "DUTY_TIME": "24小時", "HAVEOIL": "Y", "HAVESELF": null, "ADDR_X": 306907.59665800002, "ADDR_Y": 2775056.1378700002 }, "geometry": { "type": "Point", "coordinates": [ 121.56414881100011, 25.082697748000044 ] } },
{ "type": "Feature", "properties": { "OBJECTID": 52, "F_id": 52, "CITYZONE": "內湖區", "NAME": "中油", "S_NAME": "安康加油加氣站", "SUPPLIER": "中油直營站", "ADDRESS": "安康路282號", "PHONE": "02-27909413", "DUTY_TIME": "7-22時", "HAVEOIL": "Y", "HAVESELF": null, "ADDR_X": 311125.49289, "ADDR_Y": 2773013.8190600001 }, "geometry": { "type": "Point", "coordinates": [ 121.60587007100003, 25.064095292000047 ] } },
{ "type": "Feature", "properties": { "OBJECTID": 53, "F_id": 53, "CITYZONE": "內湖區", "NAME": "全國", "S_NAME": "全國港墘路站", "SUPPLIER": "台塑", "ADDRESS": "港墘路250號", "PHONE": "02-26598405", "DUTY_TIME": "24小時", "HAVEOIL": "Y", "HAVESELF": "Y", "ADDR_X": 307747.04479399999, "ADDR_Y": 2774185.12934 }, "geometry": { "type": "Point", "coordinates": [ 121.57243372000005, 25.074802560000023 ] } },
{ "type": "Feature", "properties": { "OBJECTID": 54, "F_id": 54, "CITYZONE": "內湖區", "NAME": "鯨世界", "S_NAME": "鯨世界堤頂站", "SUPPLIER": "台塑", "ADDRESS": "堤頂大道2段13號", "PHONE": "02-27993198", "DUTY_TIME": "24小時", "HAVEOIL": "Y", "HAVESELF": "Y", "ADDR_X": 307707.57093599997, "ADDR_Y": 2774251.9811399998 }, "geometry": { "type": "Point", "coordinates": [ 121.57204524400004, 25.075407595000058 ] } },
{ "type": "Feature", "properties": { "OBJECTID": 55, "F_id": 55, "CITYZONE": "文山區", "NAME": "政大", "S_NAME": "政大站", "SUPPLIER": "台塑", "ADDRESS": "指南路一段53號", "PHONE": "02-29398177", "DUTY_TIME": "24小時", "HAVEOIL": "Y", "HAVESELF": null, "ADDR_X": 307622.435489, "ADDR_Y": 2764550.0843500001 }, "geometry": { "type": "Point", "coordinates": [ 121.57079595500011, 24.987823150000054 ] } },
{ "type": "Feature", "properties": { "OBJECTID": 56, "F_id": 56, "CITYZONE": "文山區", "NAME": "中油", "S_NAME": "木柵站", "SUPPLIER": "中油直營站", "ADDRESS": "木柵路三段2號", "PHONE": "02-29392990", "DUTY_TIME": "24小時", "HAVEOIL": "Y", "HAVESELF": "Y", "ADDR_X": 306953.51863100001, "ADDR_Y": 2764621.6903 }, "geometry": { "type": "Point", "coordinates": [ 121.56417300800001, 24.988494873000036 ] } },
{ "type": "Feature", "properties": { "OBJECTID": 57, "F_id": 57, "CITYZONE": "文山區", "NAME": "車容坊", "S_NAME": "辛亥站", "SUPPLIER": "中油加盟站", "ADDRESS": "辛亥路四段100號", "PHONE": "02-86639825", "DUTY_TIME": "24小時", "HAVEOIL": "Y", "HAVESELF": "Y", "ADDR_X": 306302.89622599998, "ADDR_Y": 2766566.6263799998 }, "geometry": { "type": "Point", "coordinates": [ 121.55780754400007, 25.006077964000042 ] } },
{ "type": "Feature", "properties": { "OBJECTID": 58, "F_id": 58, "CITYZONE": "文山區", "NAME": "全國", "S_NAME": "全國景美站", "SUPPLIER": "台塑", "ADDRESS": "羅斯福路六段140號", "PHONE": "02-29356519", "DUTY_TIME": "24小時", "HAVEOIL": "Y", "HAVESELF": "Y", "ADDR_X": 304578.03639000002, "ADDR_Y": 2765472.5942299999 }, "geometry": { "type": "Point", "coordinates": [ 121.54067628700011, 24.996264172000053 ] } },
{ "type": "Feature", "properties": { "OBJECTID": 59, "F_id": 59, "CITYZONE": "文山區", "NAME": "金台", "S_NAME": "福華站", "SUPPLIER": "台塑", "ADDRESS": "興隆路二段244巷1號", "PHONE": "02-29347533", "DUTY_TIME": "24小時", "HAVEOIL": "Y", "HAVESELF": null, "ADDR_X": 305798.36661500001, "ADDR_Y": 2765805.9498800002 }, "geometry": { "type": "Point", "coordinates": [ 121.55277849000004, 24.999229271000047 ] } },
{ "type": "Feature", "properties": { "OBJECTID": 60, "F_id": 60, "CITYZONE": "文山區", "NAME": "世新", "S_NAME": "世新站", "SUPPLIER": "中油加盟站", "ADDRESS": "景興路293號", "PHONE": "02-29354466", "DUTY_TIME": "24小時", "HAVEOIL": "Y", "HAVESELF": null, "ADDR_X": 304761.33260299999, "ADDR_Y": 2764696.2936200001 }, "geometry": { "type": "Point", "coordinates": [ 121.5424612810001, 24.989249132000054 ] } },
{ "type": "Feature", "properties": { "OBJECTID": 61, "F_id": 61, "CITYZONE": "北投區", "NAME": "台亞", "S_NAME": "台亞承德站", "SUPPLIER": "台塑直營站", "ADDRESS": "承德路七段303號", "PHONE": "02-28203335", "DUTY_TIME": "24小時", "HAVEOIL": "Y", "HAVESELF": "Y", "ADDR_X": 300818.84558600001, "ADDR_Y": 2778802.5018199999 }, "geometry": { "type": "Point", "coordinates": [ 121.50392899000008, 25.116736763000063 ] } },
{ "type": "Feature", "properties": { "OBJECTID": 62, "F_id": 62, "CITYZONE": "北投區", "NAME": "中油", "S_NAME": "北投站", "SUPPLIER": "中油直營站", "ADDRESS": "承德路七段384號", "PHONE": "02-28201203", "DUTY_TIME": "24小時", "HAVEOIL": "Y", "HAVESELF": "Y", "ADDR_X": 300647.98318500002, "ADDR_Y": 2779083.3219900001 }, "geometry": { "type": "Point", "coordinates": [ 121.5022451000001, 25.119277726000064 ] } },
{ "type": "Feature", "properties": { "OBJECTID": 63, "F_id": 63, "CITYZONE": "北投區", "NAME": "中油", "S_NAME": "中央北路站", "SUPPLIER": "中油直營站", "ADDRESS": "中央北路四段584號", "PHONE": "02-28913744", "DUTY_TIME": "24小時", "HAVEOIL": "Y", "HAVESELF": "Y", "ADDR_X": 297000.35369000002, "ADDR_Y": 2779916.1952399998 }, "geometry": { "type": "Point", "coordinates": [ 121.46610329500004, 25.126914980000038 ] } },
{ "type": "Feature", "properties": { "OBJECTID": 64, "F_id": 64, "CITYZONE": "北投區", "NAME": "中油", "S_NAME": "百齡四路加油加氣站", "SUPPLIER": "中油直營站", "ADDRESS": "承德路六段427號", "PHONE": "02-28201427", "DUTY_TIME": "24小時", "HAVEOIL": "Y", "HAVESELF": "Y", "ADDR_X": 301546.20908599999, "ADDR_Y": 2777833.5886200001 }, "geometry": { "type": "Point", "coordinates": [ 121.51110506100008, 25.107964836000065 ] } },
{ "type": "Feature", "properties": { "OBJECTID": 65, "F_id": 65, "CITYZONE": "北投區", "NAME": "車容坊", "S_NAME": "大業站", "SUPPLIER": "中油加盟站", "ADDRESS": "大度路2號", "PHONE": "02-28927890", "DUTY_TIME": "24小時", "HAVEOIL": "Y", "HAVESELF": null, "ADDR_X": 300269.07642100001, "ADDR_Y": 2779331.5383199998 }, "geometry": { "type": "Point", "coordinates": [ 121.49849691700001, 25.121531279000067 ] } },
{ "type": "Feature", "properties": { "OBJECTID": 66, "F_id": 66, "CITYZONE": "信義區", "NAME": "中油", "S_NAME": "忠孝東路站", "SUPPLIER": "中油直營站", "ADDRESS": "忠孝東路五段129號", "PHONE": "02-27622418", "DUTY_TIME": "24小時", "HAVEOIL": "Y", "HAVESELF": "Y", "ADDR_X": 307208.64844899997, "ADDR_Y": 2770482.1139500001 }, "geometry": { "type": "Point", "coordinates": [ 121.56694308800002, 25.041392710000025 ] } },
{ "type": "Feature", "properties": { "OBJECTID": 67, "F_id": 67, "CITYZONE": "南港區", "NAME": "中油", "S_NAME": "南港站", "SUPPLIER": "中油直營站", "ADDRESS": "南港路二段50號", "PHONE": "02-27822408", "DUTY_TIME": "24小時", "HAVEOIL": "Y", "HAVESELF": "Y", "ADDR_X": 310994.81797199999, "ADDR_Y": 2771908.3825099999 }, "geometry": { "type": "Point", "coordinates": [ 121.60452592500008, 25.054120904000058 ] } },
{ "type": "Feature", "properties": { "OBJECTID": 68, "F_id": 68, "CITYZONE": "南港區", "NAME": "全國", "S_NAME": "全國南港站", "SUPPLIER": "台塑", "ADDRESS": "南港路三段49號", "PHONE": "02-27828306", "DUTY_TIME": "24小時", "HAVEOIL": "Y", "HAVESELF": "Y", "ADDR_X": 309531.63753100001, "ADDR_Y": 2771808.6002199999 }, "geometry": { "type": "Point", "coordinates": [ 121.59002049500009, 25.053278401000057 ] } },
{ "type": "Feature", "properties": { "OBJECTID": 69, "F_id": 69, "CITYZONE": "南港區", "NAME": "聯成", "S_NAME": "聯成站", "SUPPLIER": "中油加盟站", "ADDRESS": "忠孝東路六段226號", "PHONE": "02-27883748", "DUTY_TIME": "24小時", "HAVEOIL": "Y", "HAVESELF": null, "ADDR_X": 309282.617164, "ADDR_Y": 2771293.3048899998 }, "geometry": { "type": "Point", "coordinates": [ 121.58753037200006, 25.048636178000038 ] } },
{ "type": "Feature", "properties": { "OBJECTID": 70, "F_id": 70, "CITYZONE": "內湖區", "NAME": "中油", "S_NAME": "西湖站", "SUPPLIER": "中油直營站", "ADDRESS": "內湖路一段59號", "PHONE": "02-27992147", "DUTY_TIME": "7~23時", "HAVEOIL": "Y", "HAVESELF": "Y", "ADDR_X": 306482.507056, "ADDR_Y": 2775314.4251799998 }, "geometry": { "type": "Point", "coordinates": [ 121.55994548800004, 25.08504548600007 ] } },
{ "type": "Feature", "properties": { "OBJECTID": 71, "F_id": 71, "CITYZONE": "萬華區", "NAME": "中油", "S_NAME": "環河南路站", "SUPPLIER": "中油直營站", "ADDRESS": "環河南路二段274之2及117之1號", "PHONE": "02-23040528", "DUTY_TIME": "汽車及自助加油24小時,機車及柴油7~22時", "HAVEOIL": "Y", "HAVESELF": "Y", "ADDR_X": 299588.06515899999, "ADDR_Y": 2769468.0909199999 }, "geometry": { "type": "Point", "coordinates": [ 121.49138827700006, 25.032507072000044 ] } },
{ "type": "Feature", "properties": { "OBJECTID": 72, "F_id": 72, "CITYZONE": "萬華區", "NAME": "中油", "S_NAME": "桂林路站", "SUPPLIER": "中油直營站", "ADDRESS": "桂林路53號", "PHONE": "02-23819053", "DUTY_TIME": "7~23時", "HAVEOIL": "Y", "HAVESELF": "Y", "ADDR_X": 300558.500268, "ADDR_Y": 2770137.6356199998 }, "geometry": { "type": "Point", "coordinates": [ 121.50102897800002, 25.038519611000027 ] } },
{ "type": "Feature", "properties": { "OBJECTID": 73, "F_id": 73, "CITYZONE": "萬華區", "NAME": "山隆", "S_NAME": "華中站", "SUPPLIER": "中油加盟站", "ADDRESS": "萬大路388號", "PHONE": "02-23071319", "DUTY_TIME": "24小時", "HAVEOIL": "Y", "HAVESELF": null, "ADDR_X": 300327.647543, "ADDR_Y": 2768293.38742 }, "geometry": { "type": "Point", "coordinates": [ 121.49867402100006, 25.021877430000075 ] } },
{ "type": "Feature", "properties": { "OBJECTID": 74, "F_id": 74, "CITYZONE": "萬華區", "NAME": "山隆", "S_NAME": "萬大站", "SUPPLIER": "中油加盟站", "ADDRESS": "萬大路207號", "PHONE": "02-23038866", "DUTY_TIME": "24小時", "HAVEOIL": "Y", "HAVESELF": null, "ADDR_X": 300518.69808399997, "ADDR_Y": 2768877.5705499998 }, "geometry": { "type": "Point", "coordinates": [ 121.50058839100006, 25.027145077000057 ] } },
{ "type": "Feature", "properties": { "OBJECTID": 75, "F_id": 75, "CITYZONE": "松山區", "NAME": "陸海", "S_NAME": "陸海加氣站", "SUPPLIER": "中油加盟站", "ADDRESS": "濱江街375號", "PHONE": "02-25093745", "DUTY_TIME": "24小時", "HAVEOIL": null, "HAVESELF": null, "ADDR_X": 305641.55430900003, "ADDR_Y": 2773942.3436199999 }, "geometry": { "type": "Point", "coordinates": [ 121.55155341700004, 25.072689739000054 ] } },
{ "type": "Feature", "properties": { "OBJECTID": 76, "F_id": 76, "CITYZONE": "中山區", "NAME": "六通", "S_NAME": "六通加氣站", "SUPPLIER": "中油加盟站", "ADDRESS": "濱江街183號", "PHONE": "02-25176032", "DUTY_TIME": "24小時", "HAVEOIL": null, "HAVESELF": null, "ADDR_X": 304385.06923600001, "ADDR_Y": 2773939.7779399999 }, "geometry": { "type": "Point", "coordinates": [ 121.53909870100006, 25.072712330000059 ] } },
{ "type": "Feature", "properties": { "OBJECTID": 77, "F_id": 77, "CITYZONE": "文山區", "NAME": "中油", "S_NAME": "萬隆站", "SUPPLIER": "中油直營站", "ADDRESS": "興隆路一段13號", "PHONE": "02-29312829", "DUTY_TIME": "24小時", "HAVEOIL": "Y", "HAVESELF": "Y", "ADDR_X": 304435.08808399999, "ADDR_Y": 2766384.7404100001 }, "geometry": { "type": "Point", "coordinates": [ 121.53929616700009, 25.00450414900007 ] } },
{ "type": "Feature", "properties": { "OBJECTID": 78, "F_id": 78, "CITYZONE": "內湖區", "NAME": "東易", "S_NAME": "東易站", "SUPPLIER": "中油加盟站", "ADDRESS": "堤頂大道2段191號", "PHONE": "02-26572663", "DUTY_TIME": "7-22時", "HAVEOIL": "Y", "HAVESELF": null, "ADDR_X": 307349.53912500001, "ADDR_Y": 2774502.89946 }, "geometry": { "type": "Point", "coordinates": [ 121.56850673400004, 25.077686482000047 ] } }
]
}
