{
"type": "FeatureCollection",
"crs": { "type": "name", "properties": { "name": "urn:ogc:def:crs:OGC:1.3:CRS84" } },
"features": [
{ "type": "Feature", "properties": { "school": "國小", "school_nam": "國立北教大實小", "address": "臺北市大安區龍淵里和平東路2段94號", "telephone": "02-2735-6186", "lat": "25.0250425", "lon": "121.540946" }, "geometry": { "type": "Point", "coordinates": [ 121.540946, 25.0250425 ] } },
{ "type": "Feature", "properties": { "school": "國小", "school_nam": "國立政大實小", "address": "臺北市文山區指南路三段12號", "telephone": "02-2939-3610", "lat": "24.9848367", "lon": "121.57996" }, "geometry": { "type": "Point", "coordinates": [ 121.57996, 24.9848367 ] } },
{ "type": "Feature", "properties": { "school": "國小", "school_nam": "松山國小", "address": "臺北市松山區八德路四段746號", "telephone": "02-2767-2907", "lat": "25.0500085", "lon": "121.5774764" }, "geometry": { "type": "Point", "coordinates": [ 121.5774764, 25.0500085 ] } },
{ "type": "Feature", "properties": { "school": "國小", "school_nam": "西松國小", "address": "臺北市松山區東光里三民路5號", "telephone": "02-2760-9221", "lat": "25.0522116", "lon": "121.5636714" }, "geometry": { "type": "Point", "coordinates": [ 121.5636714, 25.0522116 ] } },
{ "type": "Feature", "properties": { "school": "國小", "school_nam": "敦化國小", "address": "臺北市松山區中正里敦化北路2號", "telephone": "02-2741-4065", "lat": "25.049216", "lon": "121.548605" }, "geometry": { "type": "Point", "coordinates": [ 121.548605, 25.049216 ] } },
{ "type": "Feature", "properties": { "school": "國小", "school_nam": "民生國小", "address": "臺北市松山區敦化北路199巷18號", "telephone": "02-2712-2452", "lat": "25.0565153", "lon": "121.5521795" }, "geometry": { "type": "Point", "coordinates": [ 121.5521795, 25.0565153 ] } },
{ "type": "Feature", "properties": { "school": "國小", "school_nam": "民權國小", "address": "臺北市松山區民權東路四段200號", "telephone": "02-2765-2327", "lat": "25.0625251", "lon": "121.562292" }, "geometry": { "type": "Point", "coordinates": [ 121.562292, 25.0625251 ] } },
{ "type": "Feature", "properties": { "school": "國小", "school_nam": "民族國小", "address": "臺北市松山區民生東路4段97巷7號", "telephone": "02-2712-4872", "lat": "25.0594726", "lon": "121.5518154" }, "geometry": { "type": "Point", "coordinates": [ 121.5518154, 25.0594726 ] } },
{ "type": "Feature", "properties": { "school": "國小", "school_nam": "三民國小", "address": "臺北市松山區莊敬里民權東路五段1號", "telephone": "02-2764-6080", "lat": "25.0631782", "lon": "121.5642857" }, "geometry": { "type": "Point", "coordinates": [ 121.5642857, 25.0631782 ] } },
{ "type": "Feature", "properties": { "school": "國小", "school_nam": "健康國小", "address": "臺北市松山區延壽街168號", "telephone": "02-2528-2814", "lat": "25.0566674", "lon": "121.5627846" }, "geometry": { "type": "Point", "coordinates": [ 121.5627846, 25.0566674 ] } },
{ "type": "Feature", "properties": { "school": "國小", "school_nam": "興雅國小", "address": "臺北市信義區雅祥里基隆路1段83巷9號", "telephone": "02-2761-8156", "lat": "25.046751", "lon": "121.5700216" }, "geometry": { "type": "Point", "coordinates": [ 121.5700216, 25.046751 ] } },
{ "type": "Feature", "properties": { "school": "國小", "school_nam": "永春國小", "address": "臺北市信義區永春里松山路225巷48號", "telephone": "02-2764-1314", "lat": "25.0446527", "lon": "121.5790792" }, "geometry": { "type": "Point", "coordinates": [ 121.5790792, 25.0446527 ] } },
{ "type": "Feature", "properties": { "school": "國小", "school_nam": "光復國小", "address": "臺北市信義區光復南路271號", "telephone": "02-2758-5076", "lat": "25.0402704", "lon": "121.5578527" }, "geometry": { "type": "Point", "coordinates": [ 121.5578527, 25.0402704 ] } },
{ "type": "Feature", "properties": { "school": "國小", "school_nam": "三興國小", "address": "臺北市信義區景聯里基隆路2段99號", "telephone": "02-2738-5488", "lat": "25.029467", "lon": "121.558267" }, "geometry": { "type": "Point", "coordinates": [ 121.558267, 25.029467 ] } },
{ "type": "Feature", "properties": { "school": "國小", "school_nam": "信義國小", "address": "臺北市信義區松勤街60號", "telephone": "02-2720-4005", "lat": "25.0318599", "lon": "121.563206" }, "geometry": { "type": "Point", "coordinates": [ 121.563206, 25.0318599 ] } },
{ "type": "Feature", "properties": { "school": "國小", "school_nam": "吳興國小", "address": "臺北市信義區松仁路226號", "telephone": "02-2720-0226", "lat": "25.0257433", "lon": "121.568716" }, "geometry": { "type": "Point", "coordinates": [ 121.568716, 25.0257433 ] } },
{ "type": "Feature", "properties": { "school": "國小", "school_nam": "福德國小", "address": "臺北市信義區中行里褔德街253號", "telephone": "02-2727-7992", "lat": "25.0388994", "lon": "121.5865035" }, "geometry": { "type": "Point", "coordinates": [ 121.58650350000001, 25.0388994 ] } },
{ "type": "Feature", "properties": { "school": "國小", "school_nam": "永吉國小", "address": "臺北市信義區永春里松山路287巷5號", "telephone": "02-8785-8111", "lat": "25.0430088", "lon": "121.5798853" }, "geometry": { "type": "Point", "coordinates": [ 121.5798853, 25.0430088 ] } },
{ "type": "Feature", "properties": { "school": "國小", "school_nam": "博愛國小", "address": "臺北市信義區松仁路22鄰95巷20號", "telephone": "02-2345-0616", "lat": "25.0394125", "lon": "121.5681958" }, "geometry": { "type": "Point", "coordinates": [ 121.5681958, 25.0394125 ] } },
{ "type": "Feature", "properties": { "school": "國小", "school_nam": "龍安國小", "address": "臺北市大安區龍門里新生南路3段33號", "telephone": "02-2363-2077", "lat": "25.0239215", "lon": "121.5348854" }, "geometry": { "type": "Point", "coordinates": [ 121.5348854, 25.0239215 ] } },
{ "type": "Feature", "properties": { "school": "國小", "school_nam": "大安國小", "address": "臺北市大安區芳和里臥龍街129號", "telephone": "02-2732-2332", "lat": "25.0200093", "lon": "121.549095" }, "geometry": { "type": "Point", "coordinates": [ 121.549095, 25.0200093 ] } },
{ "type": "Feature", "properties": { "school": "國小", "school_nam": "幸安國小", "address": "臺北市大安區民炤里仁愛路3段22號", "telephone": "02-2707-4191", "lat": "25.037684", "lon": "121.5349702" }, "geometry": { "type": "Point", "coordinates": [ 121.5349702, 25.037684 ] } },
{ "type": "Feature", "properties": { "school": "國小", "school_nam": "建安國小", "address": "臺北市大安區龍雲里大安路2段99號", "telephone": "02-2707-7119", "lat": "25.029377", "lon": "121.546245" }, "geometry": { "type": "Point", "coordinates": [ 121.546245, 25.029377 ] } },
{ "type": "Feature", "properties": { "school": "國小", "school_nam": "仁愛國小", "address": "臺北市大安區敦安里安和路1段60號", "telephone": "02-2709-5010", "lat": "25.0357732", "lon": "121.55235" }, "geometry": { "type": "Point", "coordinates": [ 121.55235, 25.0357732 ] } },
{ "type": "Feature", "properties": { "school": "國小", "school_nam": "金華國小", "address": "臺北市大安區永康里愛國東路79巷11號", "telephone": "02-2391-7402", "lat": "25.0322754", "lon": "121.527675" }, "geometry": { "type": "Point", "coordinates": [ 121.527675, 25.0322754 ] } },
{ "type": "Feature", "properties": { "school": "國小", "school_nam": "古亭國小", "address": "臺北市大安區古風里羅斯福路3段201號", "telephone": "02-2363-9795", "lat": "25.0205827", "lon": "121.5287775" }, "geometry": { "type": "Point", "coordinates": [ 121.5287775, 25.0205827 ] } },
{ "type": "Feature", "properties": { "school": "國小", "school_nam": "銘傳國小", "address": "臺北市大安區農場里羅斯褔路四段21號", "telephone": "02-2363-9815", "lat": "25.0261583", "lon": "121.5427093" }, "geometry": { "type": "Point", "coordinates": [ 121.5427093, 25.0261583 ] } },
{ "type": "Feature", "properties": { "school": "國小", "school_nam": "公館國小", "address": "臺北市大安區基隆路4段41巷68弄2號", "telephone": "02-2735-1734", "lat": "25.0124078", "lon": "121.5428079" }, "geometry": { "type": "Point", "coordinates": [ 121.5428079, 25.0124078 ] } },
{ "type": "Feature", "properties": { "school": "國小", "school_nam": "新生國小", "address": "臺北市大安區新生南路二段36號", "telephone": "02-2391-3122", "lat": "25.0298199", "lon": "121.53362" }, "geometry": { "type": "Point", "coordinates": [ 121.53362, 25.0298199 ] } },
{ "type": "Feature", "properties": { "school": "國小", "school_nam": "中山國小", "address": "臺北市中山區恆安里民權東路1段69號", "telephone": "02-2591-4085", "lat": "25.063613", "lon": "121.526363" }, "geometry": { "type": "Point", "coordinates": [ 121.526363, 25.063613 ] } },
{ "type": "Feature", "properties": { "school": "國小", "school_nam": "中正國小", "address": "臺北市中山區力行里龍江路62號", "telephone": "02-2507-0932", "lat": "25.05049", "lon": "121.5400725" }, "geometry": { "type": "Point", "coordinates": [ 121.5400725, 25.05049 ] } },
{ "type": "Feature", "properties": { "school": "國小", "school_nam": "長安國小", "address": "臺北市中山區興亞里吉林路15號", "telephone": "02-2561-7600", "lat": "25.0497694", "lon": "121.5301634" }, "geometry": { "type": "Point", "coordinates": [ 121.53016340000001, 25.0497694 ] } },
{ "type": "Feature", "properties": { "school": "國小", "school_nam": "長春國小", "address": "臺北市中山區中央里長春路165號", "telephone": "02-2502-4366", "lat": "25.0549363", "lon": "121.5339007" }, "geometry": { "type": "Point", "coordinates": [ 121.5339007, 25.0549363 ] } },
{ "type": "Feature", "properties": { "school": "國小", "school_nam": "大直國小", "address": "臺北市中山區大直里大直街2號", "telephone": "02-2533-3953", "lat": "25.0804934", "lon": "121.5460971" }, "geometry": { "type": "Point", "coordinates": [ 121.5460971, 25.0804934 ] } },
{ "type": "Feature", "properties": { "school": "國小", "school_nam": "大佳國小", "address": "臺北市中山區大佳里6鄰濱江街107號", "telephone": "02-2503-5816", "lat": "25.073294", "lon": "121.5363674" }, "geometry": { "type": "Point", "coordinates": [ 121.5363674, 25.073294 ] } },
{ "type": "Feature", "properties": { "school": "國小", "school_nam": "五常國小", "address": "臺北市中山區下埤里五常街16號", "telephone": "02-2502-3416", "lat": "25.0641393", "lon": "121.5422023" }, "geometry": { "type": "Point", "coordinates": [ 121.5422023, 25.0641393 ] } },
{ "type": "Feature", "properties": { "school": "國小", "school_nam": "吉林國小", "address": "臺北市中山區中原里長春路116號", "telephone": "02-2521-9196", "lat": "25.054721", "lon": "121.5296301" }, "geometry": { "type": "Point", "coordinates": [ 121.52963010000001, 25.054721 ] } },
{ "type": "Feature", "properties": { "school": "國小", "school_nam": "懷生國小", "address": "臺北市中山區埤頭里安東街16巷2號", "telephone": "02-2771-0846", "lat": "25.0452404", "lon": "121.5417844" }, "geometry": { "type": "Point", "coordinates": [ 121.5417844, 25.0452404 ] } },
{ "type": "Feature", "properties": { "school": "國小", "school_nam": "永安國小", "address": "臺北市中山區明水路397巷19弄1號", "telephone": "02-2533-5672", "lat": "25.0787761", "lon": "121.5494063" }, "geometry": { "type": "Point", "coordinates": [ 121.5494063, 25.0787761 ] } },
{ "type": "Feature", "properties": { "school": "國小", "school_nam": "濱江國小", "address": "臺北市中山區樂群二路266巷99號", "telephone": "02-8502-1571", "lat": "25.0780014", "lon": "121.5616369" }, "geometry": { "type": "Point", "coordinates": [ 121.5616369, 25.0780014 ] } },
{ "type": "Feature", "properties": { "school": "國小", "school_nam": "螢橋國小", "address": "臺北市中正區螢雪里詔安街29號", "telephone": "02-2305-4620", "lat": "25.0250745", "lon": "121.514332" }, "geometry": { "type": "Point", "coordinates": [ 121.514332, 25.0250745 ] } },
{ "type": "Feature", "properties": { "school": "國小", "school_nam": "河堤國小", "address": "臺北市中正區汀州路二段180號", "telephone": "02-2367-7144", "lat": "25.0232298", "lon": "121.522699" }, "geometry": { "type": "Point", "coordinates": [ 121.522699, 25.0232298 ] } },
{ "type": "Feature", "properties": { "school": "國小", "school_nam": "忠義國小", "address": "臺北市中正區中華路二段307巷17號", "telephone": "02-2303-8752", "lat": "25.02963", "lon": "121.5063464" }, "geometry": { "type": "Point", "coordinates": [ 121.5063464, 25.02963 ] } },
{ "type": "Feature", "properties": { "school": "國小", "school_nam": "國語實小", "address": "臺北市中正區龍光里南海路58號", "telephone": "02-2303-3555", "lat": "25.0307489", "lon": "121.5105903" }, "geometry": { "type": "Point", "coordinates": [ 121.5105903, 25.0307489 ] } },
{ "type": "Feature", "properties": { "school": "國小", "school_nam": "南門國小", "address": "臺北市中正區南門里廣州街6號", "telephone": "02-2371-5052", "lat": "25.0352657", "lon": "121.5090687" }, "geometry": { "type": "Point", "coordinates": [ 121.5090687, 25.0352657 ] } },
{ "type": "Feature", "properties": { "school": "國小", "school_nam": "東門國小", "address": "臺北市中正區東門里仁愛路一段2-4號", "telephone": "02-2341-2822", "lat": "25.03862", "lon": "121.520868" }, "geometry": { "type": "Point", "coordinates": [ 121.520868, 25.03862 ] } },
{ "type": "Feature", "properties": { "school": "國小", "school_nam": "忠孝國小", "address": "臺北市中正區梅花里忠孝東路2段101號", "telephone": "02-2391-8170", "lat": "25.04293", "lon": "121.531552" }, "geometry": { "type": "Point", "coordinates": [ 121.531552, 25.04293 ] } },
{ "type": "Feature", "properties": { "school": "國小", "school_nam": "市大附小", "address": "臺北市中正區黎明里公園路29號", "telephone": "02-2311-0395", "lat": "25.0360732", "lon": "121.5152463" }, "geometry": { "type": "Point", "coordinates": [ 121.5152463, 25.0360732 ] } },
{ "type": "Feature", "properties": { "school": "國小", "school_nam": "蓬萊國小", "address": "臺北市大同區星明里寧夏路35號", "telephone": "02-2556-9835", "lat": "25.0563873", "lon": "121.5157097" }, "geometry": { "type": "Point", "coordinates": [ 121.5157097, 25.0563873 ] } },
{ "type": "Feature", "properties": { "school": "國小", "school_nam": "日新國小", "address": "臺北市大同區星明里太原路151號", "telephone": "02-2558-4819", "lat": "25.054494", "lon": "121.5165179" }, "geometry": { "type": "Point", "coordinates": [ 121.5165179, 25.054494 ] } },
{ "type": "Feature", "properties": { "school": "國小", "school_nam": "太平國小", "address": "臺北市大同區南芳里延平北路2段239號", "telephone": "02-2553-2229", "lat": "25.061412", "lon": "121.511472" }, "geometry": { "type": "Point", "coordinates": [ 121.511472, 25.061412 ] } },
{ "type": "Feature", "properties": { "school": "國小", "school_nam": "永樂國小", "address": "臺北市大同區南芳里延平北路2段266號", "telephone": "02-2553-4882", "lat": "25.061261", "lon": "121.511118" }, "geometry": { "type": "Point", "coordinates": [ 121.511118, 25.061261 ] } },
{ "type": "Feature", "properties": { "school": "國小", "school_nam": "雙蓮國小", "address": "臺北市大同區民權里錦西街51號", "telephone": "02-2557-0309", "lat": "25.060161", "lon": "121.5166898" }, "geometry": { "type": "Point", "coordinates": [ 121.5166898, 25.060161 ] } },
{ "type": "Feature", "properties": { "school": "國小", "school_nam": "大同國小", "address": "臺北市大同區蓬萊里大龍街51號", "telephone": "02-2596-5407", "lat": "25.0652808", "lon": "121.5161749" }, "geometry": { "type": "Point", "coordinates": [ 121.5161749, 25.0652808 ] } },
{ "type": "Feature", "properties": { "school": "國小", "school_nam": "大龍國小", "address": "臺北市大同區保安里哈密街47號", "telephone": "02-2594-2635", "lat": "25.073409", "lon": "121.5166925" }, "geometry": { "type": "Point", "coordinates": [ 121.5166925, 25.073409 ] } },
{ "type": "Feature", "properties": { "school": "國小", "school_nam": "延平國小", "address": "臺北市大同區國慶里昌吉街97號", "telephone": "02-2594-2439", "lat": "25.0660466", "lon": "121.5124544" }, "geometry": { "type": "Point", "coordinates": [ 121.5124544, 25.0660466 ] } },
{ "type": "Feature", "properties": { "school": "國小", "school_nam": "大橋國小", "address": "臺北市大同區隆和里重慶北路3段2號", "telephone": "02-2594-4413", "lat": "25.064112", "lon": "121.512544" }, "geometry": { "type": "Point", "coordinates": [ 121.512544, 25.064112 ] } },
{ "type": "Feature", "properties": { "school": "國小", "school_nam": "新和國小", "address": "臺北市萬華區西藏路125巷31號", "telephone": "02-2303-8298", "lat": "25.0259828", "lon": "121.5033372" }, "geometry": { "type": "Point", "coordinates": [ 121.5033372, 25.0259828 ] } },
{ "type": "Feature", "properties": { "school": "國小", "school_nam": "雙園國小", "address": "臺北市萬華區雙園里莒光路315號", "telephone": "02-2306-1893", "lat": "25.0303916", "lon": "121.4982608" }, "geometry": { "type": "Point", "coordinates": [ 121.4982608, 25.0303916 ] } },
{ "type": "Feature", "properties": { "school": "國小", "school_nam": "東園國小", "address": "臺北市萬華區全德里東園街195號", "telephone": "02-2303-4803", "lat": "25.023163", "lon": "121.4978675" }, "geometry": { "type": "Point", "coordinates": [ 121.4978675, 25.023163 ] } },
{ "type": "Feature", "properties": { "school": "國小", "school_nam": "大理國小", "address": "臺北市萬華區綠堤里艋舺大道389號", "telephone": "02-2306-4311", "lat": "25.031305", "lon": "121.4939132" }, "geometry": { "type": "Point", "coordinates": [ 121.4939132, 25.031305 ] } },
{ "type": "Feature", "properties": { "school": "國小", "school_nam": "西園國小", "address": "臺北市萬華區日善里東園街73巷65號", "telephone": "02-2303-0257", "lat": "25.0266629", "lon": "121.4988835" }, "geometry": { "type": "Point", "coordinates": [ 121.49888350000001, 25.0266629 ] } },
{ "type": "Feature", "properties": { "school": "國小", "school_nam": "萬大國小", "address": "臺北市萬華區全德里萬大路346號", "telephone": "02-2303-7654", "lat": "25.0229842", "lon": "121.4993232" }, "geometry": { "type": "Point", "coordinates": [ 121.49932320000001, 25.0229842 ] } },
{ "type": "Feature", "properties": { "school": "國小", "school_nam": "華江國小", "address": "臺北市萬華區環河南路2段250巷42弄2號", "telephone": "02-2306-4352", "lat": "25.0340691", "lon": "121.4911815" }, "geometry": { "type": "Point", "coordinates": [ 121.4911815, 25.0340691 ] } },
{ "type": "Feature", "properties": { "school": "國小", "school_nam": "西門國小", "address": "臺北市萬華區西門里成都路98號", "telephone": "02-2311-3519", "lat": "25.043172", "lon": "121.5035971" }, "geometry": { "type": "Point", "coordinates": [ 121.5035971, 25.043172 ] } },
{ "type": "Feature", "properties": { "school": "國小", "school_nam": "老松國小", "address": "臺北市萬華區福音里桂林路64號", "telephone": "02-2336-1266", "lat": "25.038046", "lon": "121.502725" }, "geometry": { "type": "Point", "coordinates": [ 121.502725, 25.038046 ] } },
{ "type": "Feature", "properties": { "school": "國小", "school_nam": "龍山國小", "address": "臺北市萬華區青山里和平西路三段235號", "telephone": "02-2308-2977", "lat": "25.035889", "lon": "121.496113" }, "geometry": { "type": "Point", "coordinates": [ 121.496113, 25.035889 ] } },
{ "type": "Feature", "properties": { "school": "國小", "school_nam": "福星國小", "address": "臺北市萬華區福星里中華路一段66號", "telephone": "02-2314-4668", "lat": "25.0467829", "lon": "121.5089051" }, "geometry": { "type": "Point", "coordinates": [ 121.50890510000001, 25.0467829 ] } },
{ "type": "Feature", "properties": { "school": "國小", "school_nam": "景美國小", "address": "臺北市文山區景行里景文街108號", "telephone": "02-2932-2151", "lat": "24.9895266", "lon": "121.5407811" }, "geometry": { "type": "Point", "coordinates": [ 121.5407811, 24.9895266 ] } },
{ "type": "Feature", "properties": { "school": "國小", "school_nam": "武功國小", "address": "臺北市文山區萬祥里興隆路1段68號", "telephone": "02-2931-4360", "lat": "25.0038887", "lon": "121.5404927" }, "geometry": { "type": "Point", "coordinates": [ 121.5404927, 25.0038887 ] } },
{ "type": "Feature", "properties": { "school": "國小", "school_nam": "興德國小", "address": "臺北市文山區興邦里興隆路2段235號", "telephone": "02-2932-9431", "lat": "25.0016222", "lon": "121.5507703" }, "geometry": { "type": "Point", "coordinates": [ 121.5507703, 25.0016222 ] } },
{ "type": "Feature", "properties": { "school": "國小", "school_nam": "溪口國小", "address": "臺北市文山區景慶里景福街225號", "telephone": "02-2935-0955", "lat": "24.99413", "lon": "121.5387574" }, "geometry": { "type": "Point", "coordinates": [ 121.5387574, 24.99413 ] } },
{ "type": "Feature", "properties": { "school": "國小", "school_nam": "興隆國小", "address": "臺北市文山區興望里福興路2號", "telephone": "02-2932-3131", "lat": "25.0024355", "lon": "121.5518875" }, "geometry": { "type": "Point", "coordinates": [ 121.55188750000001, 25.0024355 ] } },
{ "type": "Feature", "properties": { "school": "國小", "school_nam": "志清國小", "address": "臺北市文山區景仁里景福街21巷5號", "telephone": "02-2932-3875", "lat": "24.9986645", "lon": "121.5389076" }, "geometry": { "type": "Point", "coordinates": [ 121.5389076, 24.9986645 ] } },
{ "type": "Feature", "properties": { "school": "國小", "school_nam": "景興國小", "address": "臺北市文山區興安里景華街150巷21號", "telephone": "02-2932-9439", "lat": "24.9964339", "lon": "121.5482935" }, "geometry": { "type": "Point", "coordinates": [ 121.5482935, 24.9964339 ] } },
{ "type": "Feature", "properties": { "school": "國小", "school_nam": "木柵國小", "address": "臺北市文山區木柵里木柵路3段191號", "telephone": "02-2939-1234", "lat": "24.9902695", "lon": "121.5701489" }, "geometry": { "type": "Point", "coordinates": [ 121.57014890000001, 24.9902695 ] } },
{ "type": "Feature", "properties": { "school": "國小", "school_nam": "永建國小", "address": "臺北市文山區華興里試院路2號", "telephone": "02-2236-3855", "lat": "24.9875796", "lon": "121.5500432" }, "geometry": { "type": "Point", "coordinates": [ 121.5500432, 24.9875796 ] } },
{ "type": "Feature", "properties": { "school": "國小", "school_nam": "實踐國小", "address": "臺北市文山區樟文里忠順街1段4號", "telephone": "02-2936-0725", "lat": "24.9837272", "lon": "121.5576388" }, "geometry": { "type": "Point", "coordinates": [ 121.55763880000001, 24.9837272 ] } },
{ "type": "Feature", "properties": { "school": "國小", "school_nam": "博嘉國小", "address": "臺北市文山區木柵路4段159巷14號之1", "telephone": "02-2230-2585", "lat": "25.000695", "lon": "121.575404" }, "geometry": { "type": "Point", "coordinates": [ 121.575404, 25.000695 ] } },
{ "type": "Feature", "properties": { "school": "國小", "school_nam": "指南國小", "address": "臺北市文山區指南路三段38巷5-2號", "telephone": "02-2939-3546", "lat": "24.9763942", "lon": "121.5836353" }, "geometry": { "type": "Point", "coordinates": [ 121.5836353, 24.9763942 ] } },
{ "type": "Feature", "properties": { "school": "國小", "school_nam": "明道國小", "address": "臺北市文山區明興里木柵路2段138巷61號", "telephone": "02-2939-2821", "lat": "24.9873333", "lon": "121.5625578" }, "geometry": { "type": "Point", "coordinates": [ 121.5625578, 24.9873333 ] } },
{ "type": "Feature", "properties": { "school": "國小", "school_nam": "萬芳國小", "address": "臺北市文山區萬芳里萬和街1號", "telephone": "02-2230-1232", "lat": "25.0013132", "lon": "121.5677338" }, "geometry": { "type": "Point", "coordinates": [ 121.5677338, 25.0013132 ] } },
{ "type": "Feature", "properties": { "school": "國小", "school_nam": "力行國小", "address": "臺北市文山區樟腳里木新路3段155巷7號", "telephone": "02-2936-3995", "lat": "24.9809691", "lon": "121.5611618" }, "geometry": { "type": "Point", "coordinates": [ 121.5611618, 24.9809691 ] } },
{ "type": "Feature", "properties": { "school": "國小", "school_nam": "萬興國小", "address": "臺北市文山區萬興里秀明路2段114號", "telephone": "02-2938-1721", "lat": "24.9904294", "lon": "121.5765927" }, "geometry": { "type": "Point", "coordinates": [ 121.57659270000001, 24.9904294 ] } },
{ "type": "Feature", "properties": { "school": "國小", "school_nam": "萬福國小", "address": "臺北市文山區羅斯福5段170巷32號", "telephone": "02-2935-3123", "lat": "25.0048928", "lon": "121.5367124" }, "geometry": { "type": "Point", "coordinates": [ 121.5367124, 25.0048928 ] } },
{ "type": "Feature", "properties": { "school": "國小", "school_nam": "興華國小", "address": "臺北市文山區興光里興隆路3段125巷6號", "telephone": "02-2239-3070", "lat": "24.9988344", "lon": "121.5587218" }, "geometry": { "type": "Point", "coordinates": [ 121.5587218, 24.9988344 ] } },
{ "type": "Feature", "properties": { "school": "國小", "school_nam": "辛亥國小", "address": "臺北市文山區興昌里辛亥路4段103號", "telephone": "02-2935-7282", "lat": "25.0064295", "lon": "121.5592422" }, "geometry": { "type": "Point", "coordinates": [ 121.5592422, 25.0064295 ] } },
{ "type": "Feature", "properties": { "school": "國小", "school_nam": "南港國小", "address": "臺北市南港區三重里惠民街67號", "telephone": "02-2783-4678", "lat": "25.057689", "lon": "121.6101081" }, "geometry": { "type": "Point", "coordinates": [ 121.61010810000001, 25.057689 ] } },
{ "type": "Feature", "properties": { "school": "國小", "school_nam": "舊莊國小", "address": "臺北市南港區舊莊里舊莊街1段100號", "telephone": "02-2782-1418", "lat": "25.0402449", "lon": "121.619539" }, "geometry": { "type": "Point", "coordinates": [ 121.619539, 25.0402449 ] } },
{ "type": "Feature", "properties": { "school": "國小", "school_nam": "玉成國小", "address": "臺北市南港區西新里向陽路31號", "telephone": "02-2783-6049", "lat": "25.0535818", "lon": "121.5947692" }, "geometry": { "type": "Point", "coordinates": [ 121.5947692, 25.0535818 ] } },
{ "type": "Feature", "properties": { "school": "國小", "school_nam": "成德國小", "address": "臺北市南港區聯成里東新街65號", "telephone": "02-2785-1376", "lat": "25.0468798", "lon": "121.5869084" }, "geometry": { "type": "Point", "coordinates": [ 121.5869084, 25.0468798 ] } },
{ "type": "Feature", "properties": { "school": "國小", "school_nam": "胡適國小", "address": "臺北市南港區中研里舊莊街1段1號", "telephone": "02-2782-4949", "lat": "25.0423894", "lon": "121.6172346" }, "geometry": { "type": "Point", "coordinates": [ 121.6172346, 25.0423894 ] } },
{ "type": "Feature", "properties": { "school": "國小", "school_nam": "東新國小", "address": "臺北市南港區東新里興南街62號", "telephone": "02-2783-7577", "lat": "25.0554594", "lon": "121.6022189" }, "geometry": { "type": "Point", "coordinates": [ 121.6022189, 25.0554594 ] } },
{ "type": "Feature", "properties": { "school": "國小", "school_nam": "修德國小", "address": "臺北市南港區東新街118巷86號", "telephone": "02-2788-0500", "lat": "25.0455318", "lon": "121.5896359" }, "geometry": { "type": "Point", "coordinates": [ 121.5896359, 25.0455318 ] } },
{ "type": "Feature", "properties": { "school": "國小", "school_nam": "內湖國小", "address": "臺北市內湖區港富里內湖路二段41號", "telephone": "02-2799-8085", "lat": "25.0791258", "lon": "121.5802392" }, "geometry": { "type": "Point", "coordinates": [ 121.5802392, 25.0791258 ] } },
{ "type": "Feature", "properties": { "school": "國小", "school_nam": "碧湖國小", "address": "臺北市內湖區內湖里金龍路100號", "telephone": "02-2790-7161", "lat": "25.0853115", "lon": "121.5911103" }, "geometry": { "type": "Point", "coordinates": [ 121.5911103, 25.0853115 ] } },
{ "type": "Feature", "properties": { "school": "國小", "school_nam": "潭美國小", "address": "臺北市內湖區石潭里新明路22號", "telephone": "02-2791-7334", "lat": "25.0603451", "lon": "121.5905901" }, "geometry": { "type": "Point", "coordinates": [ 121.5905901, 25.0603451 ] } },
{ "type": "Feature", "properties": { "school": "國小", "school_nam": "東湖國小", "address": "臺北市內湖區東湖里東湖路115號", "telephone": "02-2633-9984", "lat": "25.0691597", "lon": "121.6160678" }, "geometry": { "type": "Point", "coordinates": [ 121.6160678, 25.0691597 ] } },
{ "type": "Feature", "properties": { "school": "國小", "school_nam": "西湖國小", "address": "臺北市內湖區西湖里環山路1段25號", "telephone": "02-2797-1267", "lat": "25.0838299", "lon": "121.5656995" }, "geometry": { "type": "Point", "coordinates": [ 121.5656995, 25.0838299 ] } },
{ "type": "Feature", "properties": { "school": "國小", "school_nam": "康寧國小", "address": "臺北市內湖區清白里星雲街121號", "telephone": "02-2790-1237", "lat": "25.080037", "lon": "121.5950035" }, "geometry": { "type": "Point", "coordinates": [ 121.5950035, 25.080037 ] } },
{ "type": "Feature", "properties": { "school": "國小", "school_nam": "明湖國小", "address": "臺北市內湖區東湖里康寧路3段105號", "telephone": "02-2632-3477", "lat": "25.0713228", "lon": "121.610761" }, "geometry": { "type": "Point", "coordinates": [ 121.610761, 25.0713228 ] } },
{ "type": "Feature", "properties": { "school": "國小", "school_nam": "麗山國小", "address": "臺北市內湖區港都里港華街100號", "telephone": "02-2657-4158", "lat": "25.0836791", "lon": "121.5724649" }, "geometry": { "type": "Point", "coordinates": [ 121.5724649, 25.0836791 ] } },
{ "type": "Feature", "properties": { "school": "國小", "school_nam": "新湖國小", "address": "臺北市內湖區湖興里民權東路6段138號", "telephone": "02-2796-3721", "lat": "25.068804", "lon": "121.5887456" }, "geometry": { "type": "Point", "coordinates": [ 121.5887456, 25.068804 ] } },
{ "type": "Feature", "properties": { "school": "國小", "school_nam": "文湖國小", "address": "臺北市內湖區西康里文湖街15號", "telephone": "02-2658-3515", "lat": "25.085771", "lon": "121.5601224" }, "geometry": { "type": "Point", "coordinates": [ 121.5601224, 25.085771 ] } },
{ "type": "Feature", "properties": { "school": "國小", "school_nam": "大湖國小", "address": "臺北市內湖區大湖里大湖山莊街170號", "telephone": "02-2791-5870", "lat": "25.0881206", "lon": "121.6004795" }, "geometry": { "type": "Point", "coordinates": [ 121.60047950000001, 25.0881206 ] } },
{ "type": "Feature", "properties": { "school": "國小", "school_nam": "南湖國小", "address": "臺北市內湖區葫洲里康寧路3段200號", "telephone": "02-2632-1296", "lat": "25.0686959", "lon": "121.6120147" }, "geometry": { "type": "Point", "coordinates": [ 121.6120147, 25.0686959 ] } },
{ "type": "Feature", "properties": { "school": "國小", "school_nam": "麗湖國小", "address": "臺北市內湖區金湖路363巷8號", "telephone": "02-2634-3888", "lat": "25.072992", "lon": "121.601146" }, "geometry": { "type": "Point", "coordinates": [ 121.601146, 25.072992 ] } },
{ "type": "Feature", "properties": { "school": "國小", "school_nam": "士林國小", "address": "臺北市士林區福德里大東路165號", "telephone": "02-2881-2231", "lat": "25.0932987", "lon": "121.5248831" }, "geometry": { "type": "Point", "coordinates": [ 121.5248831, 25.0932987 ] } },
{ "type": "Feature", "properties": { "school": "國小", "school_nam": "士東國小", "address": "臺北市士林區蘭雅里中山北路6段392號", "telephone": "02-2871-0064", "lat": "25.1129301", "lon": "121.526828" }, "geometry": { "type": "Point", "coordinates": [ 121.526828, 25.1129301 ] } },
{ "type": "Feature", "properties": { "school": "國小", "school_nam": "福林國小", "address": "臺北市士林區福志里福志路75號", "telephone": "02-2831-6293", "lat": "25.0986884", "lon": "121.5295965" }, "geometry": { "type": "Point", "coordinates": [ 121.5295965, 25.0986884 ] } },
{ "type": "Feature", "properties": { "school": "國小", "school_nam": "陽明山國小", "address": "臺北市士林區新安里仰德大道3段61號", "telephone": "02-2861-6366", "lat": "25.1193324", "lon": "121.5528168" }, "geometry": { "type": "Point", "coordinates": [ 121.5528168, 25.1193324 ] } },
{ "type": "Feature", "properties": { "school": "國小", "school_nam": "社子國小", "address": "臺北市士林區永倫里延平北路六段308號", "telephone": "02-2812-6195", "lat": "25.090006", "lon": "121.502691" }, "geometry": { "type": "Point", "coordinates": [ 121.502691, 25.090006 ] } },
{ "type": "Feature", "properties": { "school": "國小", "school_nam": "雨聲國小", "address": "臺北市士林區岩山里至誠路1段62巷70號", "telephone": "02-2831-1004", "lat": "25.1026617", "lon": "121.5352647" }, "geometry": { "type": "Point", "coordinates": [ 121.5352647, 25.1026617 ] } },
{ "type": "Feature", "properties": { "school": "國小", "school_nam": "富安國小", "address": "臺北市士林區富洲里延平北路8段135號", "telephone": "02-2810-3192", "lat": "25.105839", "lon": "121.482582" }, "geometry": { "type": "Point", "coordinates": [ 121.482582, 25.105839 ] } },
{ "type": "Feature", "properties": { "school": "國小", "school_nam": "劍潭國小", "address": "臺北市士林區明勝里通河街16號", "telephone": "02-2885-5491", "lat": "25.0799466", "lon": "121.5229841" }, "geometry": { "type": "Point", "coordinates": [ 121.5229841, 25.0799466 ] } },
{ "type": "Feature", "properties": { "school": "國小", "school_nam": "溪山國小", "address": "臺北市士林區溪山里至善路3段199號", "telephone": "02-2841-1010", "lat": "25.119658", "lon": "121.5796" }, "geometry": { "type": "Point", "coordinates": [ 121.5796, 25.119658 ] } },
{ "type": "Feature", "properties": { "school": "國小", "school_nam": "平等國小", "address": "臺北市士林區平等里平菁街101號", "telephone": "02-2861-0503", "lat": "25.129431", "lon": "121.576643" }, "geometry": { "type": "Point", "coordinates": [ 121.576643, 25.129431 ] } },
{ "type": "Feature", "properties": { "school": "國小", "school_nam": "百齡國小", "address": "臺北市士林區福中里福港街205號", "telephone": "02-2881-7683", "lat": "25.0862066", "lon": "121.5178502" }, "geometry": { "type": "Point", "coordinates": [ 121.5178502, 25.0862066 ] } },
{ "type": "Feature", "properties": { "school": "國小", "school_nam": "雙溪國小", "address": "臺北市士林區翠山里中社路2段66號", "telephone": "02-2841-1038", "lat": "25.106052", "lon": "121.563943" }, "geometry": { "type": "Point", "coordinates": [ 121.563943, 25.106052 ] } },
{ "type": "Feature", "properties": { "school": "國小", "school_nam": "葫蘆國小", "address": "臺北市士林區環河北路3段95號", "telephone": "02-2812-9586", "lat": "25.0837421", "lon": "121.5069631" }, "geometry": { "type": "Point", "coordinates": [ 121.5069631, 25.0837421 ] } },
{ "type": "Feature", "properties": { "school": "國小", "school_nam": "雨農國小", "address": "臺北市士林區名山里忠義街1號", "telephone": "02-2832-9700", "lat": "25.105282", "lon": "121.52946" }, "geometry": { "type": "Point", "coordinates": [ 121.52946, 25.105282 ] } },
{ "type": "Feature", "properties": { "school": "國小", "school_nam": "天母國小", "address": "臺北市士林區天玉里天玉街12號", "telephone": "02-2872-3336", "lat": "25.1197914", "lon": "121.5275331" }, "geometry": { "type": "Point", "coordinates": [ 121.5275331, 25.1197914 ] } },
{ "type": "Feature", "properties": { "school": "國小", "school_nam": "文昌國小", "address": "臺北市士林區文林路615巷20號", "telephone": "02-2836-5411", "lat": "25.099401", "lon": "121.521359" }, "geometry": { "type": "Point", "coordinates": [ 121.521359, 25.099401 ] } },
{ "type": "Feature", "properties": { "school": "國小", "school_nam": "芝山國小", "address": "臺北市士林區芝山里德行東路285號", "telephone": "02-2831-6115", "lat": "25.110293", "lon": "121.536413" }, "geometry": { "type": "Point", "coordinates": [ 121.536413, 25.110293 ] } },
{ "type": "Feature", "properties": { "school": "國小", "school_nam": "蘭雅國小", "address": "臺北市士林區蘭興里磺溪街57號", "telephone": "02-2836-6052", "lat": "25.1084096", "lon": "121.5231371" }, "geometry": { "type": "Point", "coordinates": [ 121.5231371, 25.1084096 ] } },
{ "type": "Feature", "properties": { "school": "國小", "school_nam": "三玉國小", "address": "臺北市士林區三玉里天母東路116號", "telephone": "02-2875-1369", "lat": "25.117932", "lon": "121.53712" }, "geometry": { "type": "Point", "coordinates": [ 121.53712, 25.117932 ] } },
{ "type": "Feature", "properties": { "school": "國小", "school_nam": "北投國小", "address": "臺北市北投區長安里中央北路1段73號", "telephone": "02-2891-2052", "lat": "25.1342551", "lon": "121.5003095" }, "geometry": { "type": "Point", "coordinates": [ 121.5003095, 25.1342551 ] } },
{ "type": "Feature", "properties": { "school": "國小", "school_nam": "逸仙國小", "address": "臺北市北投區中心里新民路2號", "telephone": "02-2891-4537", "lat": "25.138367", "lon": "121.505155" }, "geometry": { "type": "Point", "coordinates": [ 121.505155, 25.138367 ] } },
{ "type": "Feature", "properties": { "school": "國小", "school_nam": "石牌國小", "address": "臺北市北投區吉利里致遠二路80號", "telephone": "02-2822-7484", "lat": "25.1156878", "lon": "121.5117046" }, "geometry": { "type": "Point", "coordinates": [ 121.5117046, 25.1156878 ] } },
{ "type": "Feature", "properties": { "school": "國小", "school_nam": "關渡國小", "address": "臺北市北投區一德里中央北路4段581號", "telephone": "02-2891-2847", "lat": "25.126608", "lon": "121.466232" }, "geometry": { "type": "Point", "coordinates": [ 121.466232, 25.126608 ] } },
{ "type": "Feature", "properties": { "school": "國小", "school_nam": "湖田國小", "address": "臺北市北投區湖田里竹子湖路17之2號", "telephone": "02-2861-6963", "lat": "25.168503", "lon": "121.538837" }, "geometry": { "type": "Point", "coordinates": [ 121.538837, 25.168503 ] } },
{ "type": "Feature", "properties": { "school": "國小", "school_nam": "清江國小", "address": "臺北市北投區奇岩里公館路220號", "telephone": "02-2891-2764", "lat": "25.1269568", "lon": "121.5076634" }, "geometry": { "type": "Point", "coordinates": [ 121.5076634, 25.1269568 ] } },
{ "type": "Feature", "properties": { "school": "國小", "school_nam": "泉源國小", "address": "臺北市北投區泉源里東昇路34號", "telephone": "02-2895-1258", "lat": "25.149185", "lon": "121.524203" }, "geometry": { "type": "Point", "coordinates": [ 121.524203, 25.149185 ] } },
{ "type": "Feature", "properties": { "school": "國小", "school_nam": "大屯國小", "address": "臺北市北投區大屯里復興三路312號", "telephone": "02-2891-4353", "lat": "25.154895", "lon": "121.503983" }, "geometry": { "type": "Point", "coordinates": [ 121.503983, 25.154895 ] } },
{ "type": "Feature", "properties": { "school": "國小", "school_nam": "湖山國小", "address": "臺北市北投區湖山里湖底路11號", "telephone": "02-2861-0148", "lat": "25.150059", "lon": "121.535797" }, "geometry": { "type": "Point", "coordinates": [ 121.535797, 25.150059 ] } },
{ "type": "Feature", "properties": { "school": "國小", "school_nam": "桃源國小", "address": "臺北市北投區中央北路3段40巷45號", "telephone": "02-2894-1208", "lat": "25.139798", "lon": "121.484371" }, "geometry": { "type": "Point", "coordinates": [ 121.484371, 25.139798 ] } },
{ "type": "Feature", "properties": { "school": "國小", "school_nam": "文林國小", "address": "臺北市北投區建民里文林北路155號", "telephone": "02-2823-4212", "lat": "25.1059048", "lon": "121.5147443" }, "geometry": { "type": "Point", "coordinates": [ 121.5147443, 25.1059048 ] } },
{ "type": "Feature", "properties": { "school": "國小", "school_nam": "義方國小", "address": "臺北市北投區珠海路155號", "telephone": "02-2891-7433", "lat": "25.141925", "lon": "121.509816" }, "geometry": { "type": "Point", "coordinates": [ 121.509816, 25.141925 ] } },
{ "type": "Feature", "properties": { "school": "國小", "school_nam": "立農國小", "address": "臺北市北投區立農里立農街1段250號", "telephone": "02-2821-0702", "lat": "25.119488", "lon": "121.505031" }, "geometry": { "type": "Point", "coordinates": [ 121.505031, 25.119488 ] } },
{ "type": "Feature", "properties": { "school": "國小", "school_nam": "明德國小", "address": "臺北市北投區榮華里明德路190號", "telephone": "02-2822-9651", "lat": "25.1121226", "lon": "121.5217881" }, "geometry": { "type": "Point", "coordinates": [ 121.5217881, 25.1121226 ] } },
{ "type": "Feature", "properties": { "school": "國小", "school_nam": "文化國小", "address": "臺北市北投區文化里文化三路1號", "telephone": "02-2893-3828", "lat": "25.137188", "lon": "121.496154" }, "geometry": { "type": "Point", "coordinates": [ 121.496154, 25.137188 ] } },
{ "type": "Feature", "properties": { "school": "國小", "school_nam": "私立復興實驗高中附小", "address": "臺北市大安區仁愛里敦化南路1段262號", "telephone": "02-2771-5859", "lat": "25.0393604", "lon": "121.5483831" }, "geometry": { "type": "Point", "coordinates": [ 121.5483831, 25.0393604 ] } },
{ "type": "Feature", "properties": { "school": "國小", "school_nam": "私立立人國際國民中小學", "address": "臺北市大安區義榮里安和路二段99號", "telephone": "02-2736-1388", "lat": "25.029802", "lon": "121.551908" }, "geometry": { "type": "Point", "coordinates": [ 121.551908, 25.029802 ] } },
{ "type": "Feature", "properties": { "school": "國小", "school_nam": "私立新民小學", "address": "臺北市大安區龍坡里辛亥路1段113號", "telephone": "02-2363-0450", "lat": "25.022496", "lon": "121.532115" }, "geometry": { "type": "Point", "coordinates": [ 121.532115, 25.022496 ] } },
{ "type": "Feature", "properties": { "school": "國小", "school_nam": "私立光仁小學", "address": "臺北市萬華區壽德里萬大路423巷15號", "telephone": "02-2303-2874", "lat": "25.0214164", "lon": "121.4995713" }, "geometry": { "type": "Point", "coordinates": [ 121.4995713, 25.0214164 ] } },
{ "type": "Feature", "properties": { "school": "國小", "school_nam": "私立靜心小學", "address": "臺北市文山區興福里興隆路2段46號", "telephone": "02-2932-3118", "lat": "24.998895", "lon": "121.546825" }, "geometry": { "type": "Point", "coordinates": [ 121.546825, 24.998895 ] } },
{ "type": "Feature", "properties": { "school": "國小", "school_nam": "私立中山小學", "address": "臺北市文山區木柵路1段292號", "telephone": "02-2936-0935", "lat": "24.988306", "lon": "121.556326" }, "geometry": { "type": "Point", "coordinates": [ 121.556326, 24.988306 ] } },
{ "type": "Feature", "properties": { "school": "國小", "school_nam": "私立再興小學", "address": "臺北市文山區明義里興隆路4段2號", "telephone": "02-2937-1118", "lat": "24.990528", "lon": "121.558974" }, "geometry": { "type": "Point", "coordinates": [ 121.558974, 24.990528 ] } },
{ "type": "Feature", "properties": { "school": "國小", "school_nam": "私立華興小學", "address": "臺北市士林區芝山里仰德大道1段101號", "telephone": "02-2831-6834", "lat": "25.104979", "lon": "121.538443" }, "geometry": { "type": "Point", "coordinates": [ 121.538443, 25.104979 ] } },
{ "type": "Feature", "properties": { "school": "國小", "school_nam": "私立薇閣小學", "address": "臺北市北投區長安里育仁路106號", "telephone": "02-2891-2668", "lat": "25.136058", "lon": "121.50088" }, "geometry": { "type": "Point", "coordinates": [ 121.50088, 25.136058 ] } },
{ "type": "Feature", "properties": { "school": "國小", "school_nam": "私立奎山中學附小", "address": "臺北市北投區榮華里明德路200號", "telephone": "02-2821-2009", "lat": "25.112967", "lon": "121.522222" }, "geometry": { "type": "Point", "coordinates": [ 121.522222, 25.112967 ] } },
{ "type": "Feature", "properties": { "school": "國中", "school_nam": "市立介壽國中", "address": "臺北市松山區介壽里延壽街401號", "telephone": "02-2767-4496", "lat": "25.056406", "lon": "121.556529" }, "geometry": { "type": "Point", "coordinates": [ 121.556529, 25.056406 ] } },
{ "type": "Feature", "properties": { "school": "國中", "school_nam": "市立民生國中", "address": "臺北市松山區新東里新東街30巷1號", "telephone": "02-2765-3433", "lat": "25.059828", "lon": "121.567329" }, "geometry": { "type": "Point", "coordinates": [ 121.567329, 25.059828 ] } },
{ "type": "Feature", "properties": { "school": "國中", "school_nam": "市立中山國中", "address": "臺北市松山區復興北路361巷7號", "telephone": "02-2712-6701", "lat": "25.06054", "lon": "121.545533" }, "geometry": { "type": "Point", "coordinates": [ 121.545533, 25.06054 ] } },
{ "type": "Feature", "properties": { "school": "國中", "school_nam": "市立敦化國中", "address": "臺北市松山區南京東路三段300號", "telephone": "02-8771-7890", "lat": "25.051524", "lon": "121.546793" }, "geometry": { "type": "Point", "coordinates": [ 121.546793, 25.051524 ] } },
{ "type": "Feature", "properties": { "school": "國中", "school_nam": "市立興雅國中", "address": "臺北市信義區松德路168巷15號", "telephone": "02-2723-2771", "lat": "25.036438", "lon": "121.572355" }, "geometry": { "type": "Point", "coordinates": [ 121.572355, 25.036438 ] } },
{ "type": "Feature", "properties": { "school": "國中", "school_nam": "市立永吉國中", "address": "臺北市信義區四育里8鄰松隆路161號", "telephone": "02-2764-9066", "lat": "25.048336", "lon": "121.574141" }, "geometry": { "type": "Point", "coordinates": [ 121.574141, 25.048336 ] } },
{ "type": "Feature", "properties": { "school": "國中", "school_nam": "市立?公國中", "address": "臺北市信義區福德街221巷15號", "telephone": "02-2726-1481", "lat": "25.037068", "lon": "121.585327" }, "geometry": { "type": "Point", "coordinates": [ 121.585327, 25.037068 ] } },
{ "type": "Feature", "properties": { "school": "國中", "school_nam": "市立信義國中", "address": "臺北市信義區松仁路158巷1號", "telephone": "02-2723-6771", "lat": "25.02861", "lon": "121.567932" }, "geometry": { "type": "Point", "coordinates": [ 121.567932, 25.02861 ] } },
{ "type": "Feature", "properties": { "school": "國中", "school_nam": "市立仁愛國中", "address": "臺北市大安區敦安里仁愛路4段130號", "telephone": "02-2325-5823", "lat": "25.037501", "lon": "121.550682" }, "geometry": { "type": "Point", "coordinates": [ 121.550682, 25.037501 ] } },
{ "type": "Feature", "properties": { "school": "國中", "school_nam": "市立大安國中", "address": "臺北市大安區大安路2段63號", "telephone": "02-2755-7131", "lat": "25.030764", "lon": "121.546194" }, "geometry": { "type": "Point", "coordinates": [ 121.546194, 25.030764 ] } },
{ "type": "Feature", "properties": { "school": "國中", "school_nam": "市立芳和國中", "address": "臺北市大安區芳和里臥龍街170號", "telephone": "02-2732-1961", "lat": "25.018703", "lon": "121.550306" }, "geometry": { "type": "Point", "coordinates": [ 121.550306, 25.018703 ] } },
{ "type": "Feature", "properties": { "school": "國中", "school_nam": "市立金華國中", "address": "臺北市大安區福住里新生南路2段32號", "telephone": "02-3393-1799", "lat": "25.031201", "lon": "121.533123" }, "geometry": { "type": "Point", "coordinates": [ 121.533123, 25.031201 ] } },
{ "type": "Feature", "properties": { "school": "國中", "school_nam": "市立懷生國中", "address": "臺北市大安區忠孝東路三段248巷30號", "telephone": "02-2721-5078", "lat": "25.040365", "lon": "121.541209" }, "geometry": { "type": "Point", "coordinates": [ 121.541209, 25.040365 ] } },
{ "type": "Feature", "properties": { "school": "國中", "school_nam": "市立民族國中", "address": "臺北市大安區羅斯福路4段113巷13號", "telephone": "02-2732-2935", "lat": "25.011184", "lon": "121.538832" }, "geometry": { "type": "Point", "coordinates": [ 121.538832, 25.011184 ] } },
{ "type": "Feature", "properties": { "school": "國中", "school_nam": "市立龍門國中", "address": "臺北市大安區建國南路二段269號", "telephone": "02-2733-0299", "lat": "25.0249", "lon": "121.53803" }, "geometry": { "type": "Point", "coordinates": [ 121.53803, 25.0249 ] } },
{ "type": "Feature", "properties": { "school": "國中", "school_nam": "市立長安國中", "address": "臺北市中山區興亞里松江路70巷11號", "telephone": "02-2511-2382", "lat": "25.049413", "lon": "121.531925" }, "geometry": { "type": "Point", "coordinates": [ 121.531925, 25.049413 ] } },
{ "type": "Feature", "properties": { "school": "國中", "school_nam": "市立北安國中", "address": "臺北市中山區劍潭里明水路325號", "telephone": "02-2533-3888", "lat": "25.077788", "lon": "121.541624" }, "geometry": { "type": "Point", "coordinates": [ 121.541624, 25.077788 ] } },
{ "type": "Feature", "properties": { "school": "國中", "school_nam": "市立新興國中", "address": "臺北市中山區聚葉里林森北路511號", "telephone": "02-2571-4211", "lat": "25.062064", "lon": "121.525788" }, "geometry": { "type": "Point", "coordinates": [ 121.525788, 25.062064 ] } },
{ "type": "Feature", "properties": { "school": "國中", "school_nam": "市立五常國中", "address": "臺北市中山區下埤里復興北路430巷1號", "telephone": "02-2501-4320", "lat": "25.06349", "lon": "121.543092" }, "geometry": { "type": "Point", "coordinates": [ 121.543092, 25.06349 ] } },
{ "type": "Feature", "properties": { "school": "國中", "school_nam": "市立濱江國中", "address": "臺北市中山區樂群二路262號", "telephone": "02-8502-0126", "lat": "25.079598", "lon": "121.560716" }, "geometry": { "type": "Point", "coordinates": [ 121.560716, 25.079598 ] } },
{ "type": "Feature", "properties": { "school": "國中", "school_nam": "市立螢橋國中", "address": "臺北市中正區林興里汀州街3段4號", "telephone": "02-2368-8667", "lat": "25.019062", "lon": "121.526473" }, "geometry": { "type": "Point", "coordinates": [ 121.526473, 25.019062 ] } },
{ "type": "Feature", "properties": { "school": "國中", "school_nam": "市立古亭國中", "address": "臺北市中正區中華路2段465號", "telephone": "02-2309-0986", "lat": "25.024663", "lon": "121.510623" }, "geometry": { "type": "Point", "coordinates": [ 121.510623, 25.024663 ] } },
{ "type": "Feature", "properties": { "school": "國中", "school_nam": "市立南門國中", "address": "臺北市中正區南門里廣州街6號", "telephone": "02-2314-2775", "lat": "25.03523", "lon": "121.509094" }, "geometry": { "type": "Point", "coordinates": [ 121.509094, 25.03523 ] } },
{ "type": "Feature", "properties": { "school": "國中", "school_nam": "市立弘道國中", "address": "臺北市中正區公園路21號", "telephone": "02-2371-5520", "lat": "25.037544", "lon": "121.515295" }, "geometry": { "type": "Point", "coordinates": [ 121.515295, 25.037544 ] } },
{ "type": "Feature", "properties": { "school": "國中", "school_nam": "市立中正國中", "address": "臺北市中正區新營里愛國東路158號", "telephone": "02-2391-6697", "lat": "25.032333", "lon": "121.522081" }, "geometry": { "type": "Point", "coordinates": [ 121.522081, 25.032333 ] } },
{ "type": "Feature", "properties": { "school": "國中", "school_nam": "市立建成國中", "address": "臺北市大同區長安西路37之1號", "telephone": "02-2558-7042", "lat": "25.050367", "lon": "121.519697" }, "geometry": { "type": "Point", "coordinates": [ 121.519697, 25.050367 ] } },
{ "type": "Feature", "properties": { "school": "國中", "school_nam": "市立忠孝國中", "address": "臺北市大同區玉泉里西寧北路32號", "telephone": "02-2552-4890", "lat": "25.051233", "lon": "121.508267" }, "geometry": { "type": "Point", "coordinates": [ 121.508267, 25.051233 ] } },
{ "type": "Feature", "properties": { "school": "國中", "school_nam": "市立民權國中", "address": "臺北市大同區重慶北路三段1號", "telephone": "02-2593-1951", "lat": "25.063564", "lon": "121.513914" }, "geometry": { "type": "Point", "coordinates": [ 121.513914, 25.063564 ] } },
{ "type": "Feature", "properties": { "school": "國中", "school_nam": "市立蘭州國中", "address": "臺北市大同區至聖里大龍街187巷1號", "telephone": "02-2591-8269", "lat": "25.069322", "lon": "121.516765" }, "geometry": { "type": "Point", "coordinates": [ 121.516765, 25.069322 ] } },
{ "type": "Feature", "properties": { "school": "國中", "school_nam": "市立重慶國中", "address": "臺北市大同區重慶里敦煌路19號", "telephone": "02-2594-8631", "lat": "25.07593", "lon": "121.517906" }, "geometry": { "type": "Point", "coordinates": [ 121.517906, 25.07593 ] } },
{ "type": "Feature", "properties": { "school": "國中", "school_nam": "市立萬華國中", "address": "臺北市萬華區日善里西藏路201號", "telephone": "02-2339-4567", "lat": "25.029159", "lon": "121.498702" }, "geometry": { "type": "Point", "coordinates": [ 121.498702, 25.029159 ] } },
{ "type": "Feature", "properties": { "school": "國中", "school_nam": "市立雙園國中", "address": "臺北市萬華區和德里興義街2號", "telephone": "02-2303-0827", "lat": "25.027628", "lon": "121.492722" }, "geometry": { "type": "Point", "coordinates": [ 121.492722, 25.027628 ] } },
{ "type": "Feature", "properties": { "school": "國中", "school_nam": "市立龍山國中", "address": "臺北市萬華區富裕里南寧路46號", "telephone": "02-2336-2789", "lat": "25.036064", "lon": "121.504598" }, "geometry": { "type": "Point", "coordinates": [ 121.504598, 25.036064 ] } },
{ "type": "Feature", "properties": { "school": "國中", "school_nam": "市立木柵國中", "address": "臺北市文山區木柵路3段102巷12號", "telephone": "02-2939-3031", "lat": "24.987474", "lon": "121.567686" }, "geometry": { "type": "Point", "coordinates": [ 121.567686, 24.987474 ] } },
{ "type": "Feature", "properties": { "school": "國中", "school_nam": "市立實踐國中", "address": "臺北市文山區樟林里辛亥路七段67號", "telephone": "02-2236-2852", "lat": "24.983436", "lon": "121.554738" }, "geometry": { "type": "Point", "coordinates": [ 121.554738, 24.983436 ] } },
{ "type": "Feature", "properties": { "school": "國中", "school_nam": "市立北政國中", "address": "臺北市文山區指南里指南路3段2巷14號", "telephone": "02-2939-3651", "lat": "24.984889", "lon": "121.578271" }, "geometry": { "type": "Point", "coordinates": [ 121.578271, 24.984889 ] } },
{ "type": "Feature", "properties": { "school": "國中", "school_nam": "市立景美國中", "address": "臺北市文山區景華里景中街27號", "telephone": "02-9353-130", "lat": "24.993013", "lon": "121.542943" }, "geometry": { "type": "Point", "coordinates": [ 121.542943, 24.993013 ] } },
{ "type": "Feature", "properties": { "school": "國中", "school_nam": "市立興福國中", "address": "臺北市文山區興旺里福興路80號", "telephone": "02-2932-2024", "lat": "25.004899", "lon": "121.549743" }, "geometry": { "type": "Point", "coordinates": [ 121.549743, 25.004899 ] } },
{ "type": "Feature", "properties": { "school": "國中", "school_nam": "市立景興國中", "address": "臺北市文山區景華里景興路46巷2號", "telephone": "02-2932-3794", "lat": "24.99619", "lon": "121.544346" }, "geometry": { "type": "Point", "coordinates": [ 121.544346, 24.99619 ] } },
{ "type": "Feature", "properties": { "school": "國中", "school_nam": "市立誠正國中", "address": "臺北市南港區新富里富康街1巷24號", "telephone": "02-2782-8094", "lat": "25.054112", "lon": "121.618745" }, "geometry": { "type": "Point", "coordinates": [ 121.618745, 25.054112 ] } },
{ "type": "Feature", "properties": { "school": "國中", "school_nam": "市立成德國中", "address": "臺北市南港區成福里東新街108巷23號", "telephone": "02-2651-5635", "lat": "25.045062", "lon": "121.587802" }, "geometry": { "type": "Point", "coordinates": [ 121.587802, 25.045062 ] } },
{ "type": "Feature", "properties": { "school": "國中", "school_nam": "市立內湖國中", "address": "臺北市內湖區紫陽里陽光街1號", "telephone": "02-2790-0843", "lat": "25.076994", "lon": "121.588723" }, "geometry": { "type": "Point", "coordinates": [ 121.588723, 25.076994 ] } },
{ "type": "Feature", "properties": { "school": "國中", "school_nam": "市立麗山國中", "address": "臺北市內湖區內湖路1段629巷42號", "telephone": "02-2799-1867", "lat": "25.081742", "lon": "121.575182" }, "geometry": { "type": "Point", "coordinates": [ 121.575182, 25.081742 ] } },
{ "type": "Feature", "properties": { "school": "國中", "school_nam": "市立三民國中", "address": "臺北市內湖區湖興里民權東路6段45號", "telephone": "02-2792-4772", "lat": "25.069167", "lon": "121.586268" }, "geometry": { "type": "Point", "coordinates": [ 121.586268, 25.069167 ] } },
{ "type": "Feature", "properties": { "school": "國中", "school_nam": "市立西湖國中", "address": "臺北市內湖區西湖里環山路1段27號", "telephone": "02-2799-1817", "lat": "25.085836", "lon": "121.565674" }, "geometry": { "type": "Point", "coordinates": [ 121.565674, 25.085836 ] } },
{ "type": "Feature", "properties": { "school": "國中", "school_nam": "市立東湖國中", "address": "臺北市內湖區樂康里康樂街131號", "telephone": "02-2633-0373", "lat": "25.072268", "lon": "121.619504" }, "geometry": { "type": "Point", "coordinates": [ 121.619504, 25.072268 ] } },
{ "type": "Feature", "properties": { "school": "國中", "school_nam": "市立明湖國中", "address": "臺北市內湖區葫洲里康寧路3段60號", "telephone": "02-2632-0616", "lat": "25.070644", "lon": "121.610694" }, "geometry": { "type": "Point", "coordinates": [ 121.610694, 25.070644 ] } },
{ "type": "Feature", "properties": { "school": "國中", "school_nam": "市立士林國中", "address": "臺北市士林區福德里中正路345號", "telephone": "02-8861-3411", "lat": "25.094351", "lon": "121.522572" }, "geometry": { "type": "Point", "coordinates": [ 121.522572, 25.094351 ] } },
{ "type": "Feature", "properties": { "school": "國中", "school_nam": "市立蘭雅國中", "address": "臺北市士林區三玉里忠誠路2段51號", "telephone": "02-2832-9377", "lat": "25.110582", "lon": "121.531058" }, "geometry": { "type": "Point", "coordinates": [ 121.531058, 25.110582 ] } },
{ "type": "Feature", "properties": { "school": "國中", "school_nam": "市立至善國中", "address": "臺北市士林區臨溪里至善路2段360號", "telephone": "02-2841-1350", "lat": "25.103567", "lon": "121.555477" }, "geometry": { "type": "Point", "coordinates": [ 121.555477, 25.103567 ] } },
{ "type": "Feature", "properties": { "school": "國中", "school_nam": "市立格致國中", "address": "臺北市士林區陽明里仰德大道四段75號", "telephone": "02-2861-0079", "lat": "25.13111", "lon": "121.546808" }, "geometry": { "type": "Point", "coordinates": [ 121.546808, 25.13111 ] } },
{ "type": "Feature", "properties": { "school": "國中", "school_nam": "市立福安國中", "address": "臺北市士林區福安里延平北路7段250號", "telephone": "02-2810-8766", "lat": "25.103352", "lon": "121.487396" }, "geometry": { "type": "Point", "coordinates": [ 121.487396, 25.103352 ] } },
{ "type": "Feature", "properties": { "school": "國中", "school_nam": "市立天母國中", "address": "臺北市士林區天和里天母東路120號", "telephone": "02-2875-4864", "lat": "25.118641", "lon": "121.538572" }, "geometry": { "type": "Point", "coordinates": [ 121.538572, 25.118641 ] } },
{ "type": "Feature", "properties": { "school": "國中", "school_nam": "市立北投國中", "address": "臺北市北投區溫泉里溫泉路62號", "telephone": "02-2891-2091", "lat": "25.134472", "lon": "121.504233" }, "geometry": { "type": "Point", "coordinates": [ 121.504233, 25.134472 ] } },
{ "type": "Feature", "properties": { "school": "國中", "school_nam": "市立新民國中", "address": "臺北市北投區林泉里新民路10號", "telephone": "02-2897-9001", "lat": "25.138879", "lon": "121.506551" }, "geometry": { "type": "Point", "coordinates": [ 121.506551, 25.138879 ] } },
{ "type": "Feature", "properties": { "school": "國中", "school_nam": "市立明德國中", "address": "臺北市北投區建民里明德路50號", "telephone": "02-2823-2539", "lat": "25.10756", "lon": "121.518317" }, "geometry": { "type": "Point", "coordinates": [ 121.518317, 25.10756 ] } },
{ "type": "Feature", "properties": { "school": "國中", "school_nam": "市立桃源國中", "address": "臺北市北投區一德里中央北路4段48號", "telephone": "02-2892-9633", "lat": "25.134704", "lon": "121.477346" }, "geometry": { "type": "Point", "coordinates": [ 121.477346, 25.134704 ] } },
{ "type": "Feature", "properties": { "school": "國中", "school_nam": "市立石牌國中", "address": "臺北市北投區吉利里石牌路1段139號", "telephone": "02-2822-4682", "lat": "25.114916", "lon": "121.514209" }, "geometry": { "type": "Point", "coordinates": [ 121.514209, 25.114916 ] } },
{ "type": "Feature", "properties": { "school": "國中", "school_nam": "市立關渡國中", "address": "臺北市北投區關渡里知行路212號", "telephone": "02-2858-1770", "lat": "25.119894", "lon": "121.467358" }, "geometry": { "type": "Point", "coordinates": [ 121.467358, 25.119894 ] } },
{ "type": "Feature", "properties": { "school": "國中", "school_nam": "私立立人國際國民中小學", "address": "臺北市大安區義榮里安和路二段99號", "telephone": "02-2738-1188", "lat": "25.029803", "lon": "121.551892" }, "geometry": { "type": "Point", "coordinates": [ 121.551892, 25.029803 ] } },
{ "type": "Feature", "properties": { "school": "國中", "school_nam": "私立靜心中學", "address": "臺北市文山區興福里興隆路2段46號", "telephone": "02-2932-3118", "lat": "24.99896", "lon": "121.546673" }, "geometry": { "type": "Point", "coordinates": [ 121.546673, 24.99896 ] } },
{ "type": "Feature", "properties": { "school": "國中", "school_nam": "私立奎山中學", "address": "臺北市北投區榮華里明德路200號", "telephone": "02-2821-2009", "lat": "25.112971", "lon": "121.522064" }, "geometry": { "type": "Point", "coordinates": [ 121.522064, 25.112971 ] } },
{ "type": "Feature", "properties": { "school": "高中", "school_nam": "國立師大附中", "address": "臺北市大安區和安里信義路3段143號", "telephone": "02-2707-5215", "lat": "25.033675", "lon": "121.540396" }, "geometry": { "type": "Point", "coordinates": [ 121.540396, 25.033675 ] } },
{ "type": "Feature", "properties": { "school": "高中", "school_nam": "國立政大附中", "address": "臺北市文山區政大一街353號", "telephone": "02-8237-7500", "lat": "24.987213", "lon": "121.585971" }, "geometry": { "type": "Point", "coordinates": [ 121.585971, 24.987213 ] } },
{ "type": "Feature", "properties": { "school": "高中", "school_nam": "市立西松高中", "address": "臺北市松山區鵬程里健康路325巷7號", "telephone": "02-2528-6618", "lat": "25.055571", "lon": "121.567099" }, "geometry": { "type": "Point", "coordinates": [ 121.567099, 25.055571 ] } },
{ "type": "Feature", "properties": { "school": "高中", "school_nam": "市立中崙高中", "address": "臺北市八德路四段101號", "telephone": "02-2753-5316", "lat": "25.048705", "lon": "121.561069" }, "geometry": { "type": "Point", "coordinates": [ 121.561069, 25.048705 ] } },
{ "type": "Feature", "properties": { "school": "高中", "school_nam": "市立松山高中", "address": "臺北市信義區基隆路一段156號", "telephone": "02-2753-5968", "lat": "25.043878", "lon": "121.565825" }, "geometry": { "type": "Point", "coordinates": [ 121.565825, 25.043878 ] } },
{ "type": "Feature", "properties": { "school": "高中", "school_nam": "市立永春高中", "address": "臺北市信義區松隆里松山路654號", "telephone": "02-2727-2983", "lat": "25.03271", "lon": "121.578662" }, "geometry": { "type": "Point", "coordinates": [ 121.578662, 25.03271 ] } },
{ "type": "Feature", "properties": { "school": "高中", "school_nam": "市立和平高中", "address": "臺北市大安區芳和里臥龍街100號", "telephone": "02-2732-4300", "lat": "25.019639", "lon": "121.549146" }, "geometry": { "type": "Point", "coordinates": [ 121.549146, 25.019639 ] } },
{ "type": "Feature", "properties": { "school": "高中", "school_nam": "市立中山女中", "address": "臺北市中山區力行里長安東路2段141號", "telephone": "02-2507-3148", "lat": "25.048532", "lon": "121.537161" }, "geometry": { "type": "Point", "coordinates": [ 121.537161, 25.048532 ] } },
{ "type": "Feature", "properties": { "school": "高中", "school_nam": "市立大同高中", "address": "臺北市中山區中央里長春路167號", "telephone": "02-2505-4269", "lat": "25.054986", "lon": "121.535108" }, "geometry": { "type": "Point", "coordinates": [ 121.535108, 25.054986 ] } },
{ "type": "Feature", "properties": { "school": "高中", "school_nam": "市立大直高中", "address": "臺北市中山區劍潭里北安路420號", "telephone": "02-2533-4017", "lat": "25.079432", "lon": "121.54285" }, "geometry": { "type": "Point", "coordinates": [ 121.54285, 25.079432 ] } },
{ "type": "Feature", "properties": { "school": "高中", "school_nam": "市立建國中學", "address": "臺北市中正區龍光里南海路56號", "telephone": "02-2303-4381", "lat": "25.03121", "lon": "121.512177" }, "geometry": { "type": "Point", "coordinates": [ 121.512177, 25.03121 ] } },
{ "type": "Feature", "properties": { "school": "高中", "school_nam": "市立成功中學", "address": "臺北市中正區幸福里濟南路1段71號", "telephone": "02-2321-6256", "lat": "25.042394", "lon": "121.523811" }, "geometry": { "type": "Point", "coordinates": [ 121.523811, 25.042394 ] } },
{ "type": "Feature", "properties": { "school": "高中", "school_nam": "市立北一女中", "address": "臺北市中正區黎明里重慶南路1段165號", "telephone": "02-2382-0484", "lat": "25.041543", "lon": "121.513279" }, "geometry": { "type": "Point", "coordinates": [ 121.513279, 25.041543 ] } },
{ "type": "Feature", "properties": { "school": "高中", "school_nam": "市立明倫高中", "address": "臺北市大同區保安里承德路3段336號", "telephone": "02-2596-1567", "lat": "25.073976", "lon": "121.519421" }, "geometry": { "type": "Point", "coordinates": [ 121.519421, 25.073976 ] } },
{ "type": "Feature", "properties": { "school": "高中", "school_nam": "市立成淵高中", "address": "臺北市大同區承德路二段235號", "telephone": "02-2553-1969", "lat": "25.061275", "lon": "121.518527" }, "geometry": { "type": "Point", "coordinates": [ 121.518527, 25.061275 ] } },
{ "type": "Feature", "properties": { "school": "高中", "school_nam": "市立華江高中", "address": "臺北市萬華區日善里西藏路213號", "telephone": "02-2301-9946", "lat": "25.028526", "lon": "121.496169" }, "geometry": { "type": "Point", "coordinates": [ 121.496169, 25.028526 ] } },
{ "type": "Feature", "properties": { "school": "高中", "school_nam": "市立大理高中", "address": "臺北市萬華區綠堤里長順街2號", "telephone": "02-2302-6959", "lat": "25.030892", "lon": "121.491299" }, "geometry": { "type": "Point", "coordinates": [ 121.491299, 25.030892 ] } },
{ "type": "Feature", "properties": { "school": "高中", "school_nam": "市立景美女中", "address": "臺北市文山區樟新里木新路3段312號", "telephone": "02-2936-8847", "lat": "24.980634", "lon": "121.556897" }, "geometry": { "type": "Point", "coordinates": [ 121.556897, 24.980634 ] } },
{ "type": "Feature", "properties": { "school": "高中", "school_nam": "市立萬芳高中", "address": "臺北市文山區興隆路3段115巷1號", "telephone": "02-2230-9585", "lat": "25.000559", "lon": "121.558781" }, "geometry": { "type": "Point", "coordinates": [ 121.558781, 25.000559 ] } },
{ "type": "Feature", "properties": { "school": "高中", "school_nam": "市立南港高中", "address": "臺北市南港區西新里向陽路21號", "telephone": "02-2783-7863", "lat": "25.052483", "lon": "121.595048" }, "geometry": { "type": "Point", "coordinates": [ 121.595048, 25.052483 ] } },
{ "type": "Feature", "properties": { "school": "高中", "school_nam": "市立育成高中", "address": "臺北市南港區重陽路366號", "telephone": "02-2653-0475", "lat": "25.058684", "lon": "121.609168" }, "geometry": { "type": "Point", "coordinates": [ 121.609168, 25.058684 ] } },
{ "type": "Feature", "properties": { "school": "高中", "school_nam": "市立內湖高中", "address": "臺北市內湖區紫陽里文德路218號", "telephone": "02-2797-7035", "lat": "25.078403", "lon": "121.586522" }, "geometry": { "type": "Point", "coordinates": [ 121.586522, 25.078403 ] } },
{ "type": "Feature", "properties": { "school": "高中", "school_nam": "市立麗山高中", "address": "臺北市內湖區環山路二段100號", "telephone": "02-2657-0435", "lat": "25.084112", "lon": "121.577928" }, "geometry": { "type": "Point", "coordinates": [ 121.577928, 25.084112 ] } },
{ "type": "Feature", "properties": { "school": "高中", "school_nam": "市立南湖高中", "address": "臺北市內湖區康寧路三段220號", "telephone": "02-2630-8889", "lat": "25.066902", "lon": "121.61113" }, "geometry": { "type": "Point", "coordinates": [ 121.61113, 25.066902 ] } },
{ "type": "Feature", "properties": { "school": "高中", "school_nam": "市立陽明高中", "address": "臺北市士林區後港里中正路510號", "telephone": "02-2831-6675", "lat": "25.091851", "lon": "121.517206" }, "geometry": { "type": "Point", "coordinates": [ 121.517206, 25.091851 ] } },
{ "type": "Feature", "properties": { "school": "高中", "school_nam": "市立百齡高中", "address": "臺北市士林區義信里承德路4段177號", "telephone": "02-2883-1568", "lat": "25.086958", "lon": "121.523099" }, "geometry": { "type": "Point", "coordinates": [ 121.523099, 25.086958 ] } },
{ "type": "Feature", "properties": { "school": "高中", "school_nam": "市立復興高中", "address": "臺北市北投區復興四路70號", "telephone": "02-2891-4131", "lat": "25.143705", "lon": "121.501805" }, "geometry": { "type": "Point", "coordinates": [ 121.501805, 25.143705 ] } },
{ "type": "Feature", "properties": { "school": "高中", "school_nam": "市立中正高中", "address": "臺北市北投區文林北路77號", "telephone": "02-2823-4811", "lat": "25.104497", "lon": "121.516566" }, "geometry": { "type": "Point", "coordinates": [ 121.516566, 25.104497 ] } },
{ "type": "Feature", "properties": { "school": "高中", "school_nam": "私立祐德中學", "address": "臺北市信義區忠孝東路5段790巷27號", "telephone": "02-2727-8280", "lat": "25.042623", "lon": "121.583481" }, "geometry": { "type": "Point", "coordinates": [ 121.583481, 25.042623 ] } },
{ "type": "Feature", "properties": { "school": "高中", "school_nam": "私立延平中學", "address": "臺北市大安區和安里建國南路1段275號", "telephone": "02-2707-1478", "lat": "25.036338", "lon": "121.538356" }, "geometry": { "type": "Point", "coordinates": [ 121.538356, 25.036338 ] } },
{ "type": "Feature", "properties": { "school": "高中", "school_nam": "私立金甌女中", "address": "臺北市大安區光明里杭州南路2段1號", "telephone": "02-2321-4765", "lat": "25.03493", "lon": "121.524239" }, "geometry": { "type": "Point", "coordinates": [ 121.524239, 25.03493 ] } },
{ "type": "Feature", "properties": { "school": "高中", "school_nam": "私立復興實驗高中", "address": "臺北市大安區敦化南路1段262 號", "telephone": "02-2771-5859", "lat": "25.039328", "lon": "121.54844" }, "geometry": { "type": "Point", "coordinates": [ 121.54844, 25.039328 ] } },
{ "type": "Feature", "properties": { "school": "高中", "school_nam": "私立中興中學", "address": "臺北市中山區力行里朱崙街42號", "telephone": "02-2741-2542", "lat": "25.049891", "lon": "121.541937" }, "geometry": { "type": "Point", "coordinates": [ 121.541937, 25.049891 ] } },
{ "type": "Feature", "properties": { "school": "高中", "school_nam": "私立大同高中", "address": "臺北市中山區聚英里中山北路3段40號", "telephone": "02-2592-5252", "lat": "25.06684", "lon": "121.52221" }, "geometry": { "type": "Point", "coordinates": [ 121.52221, 25.06684 ] } },
{ "type": "Feature", "properties": { "school": "高中", "school_nam": "私立強恕中學", "address": "臺北市中正區板溪里汀州路二段143號", "telephone": "02-2365-6574", "lat": "25.024864", "lon": "121.520168" }, "geometry": { "type": "Point", "coordinates": [ 121.520168, 25.024864 ] } },
{ "type": "Feature", "properties": { "school": "高中", "school_nam": "私立靜修女中", "address": "臺北市大同區雙連里寧夏路59號", "telephone": "02-2557-4345", "lat": "25.057911", "lon": "121.51537" }, "geometry": { "type": "Point", "coordinates": [ 121.51537, 25.057911 ] } },
{ "type": "Feature", "properties": { "school": "高中", "school_nam": "私立立人高中", "address": "臺北市萬華區桂林路171號", "telephone": "02-2311-3423", "lat": "25.038748", "lon": "121.496462" }, "geometry": { "type": "Point", "coordinates": [ 121.496462, 25.038748 ] } },
{ "type": "Feature", "properties": { "school": "高中", "school_nam": "私立東山高中", "address": "臺北市文山區老泉里老泉街26巷3號", "telephone": "02-2939-5826", "lat": "24.97418", "lon": "121.56095" }, "geometry": { "type": "Point", "coordinates": [ 121.56095, 24.97418 ] } },
{ "type": "Feature", "properties": { "school": "高中", "school_nam": "私立滬江高中", "address": "臺北市文山區景美里羅斯福路6段336號", "telephone": "02-8663-1122", "lat": "24.989781", "lon": "121.539166" }, "geometry": { "type": "Point", "coordinates": [ 121.539166, 24.989781 ] } },
{ "type": "Feature", "properties": { "school": "高中", "school_nam": "私立大誠高中", "address": "臺北市文山區萬興里秀明路2段175號", "telephone": "02-2234-8989", "lat": "24.99098", "lon": "121.578218" }, "geometry": { "type": "Point", "coordinates": [ 121.578218, 24.99098 ] } },
{ "type": "Feature", "properties": { "school": "高中", "school_nam": "私立再興中學", "address": "臺北市文山區明義里興隆路4段2號", "telephone": "02-2936-6803", "lat": "24.990447", "lon": "121.559112" }, "geometry": { "type": "Point", "coordinates": [ 121.559112, 24.990447 ] } },
{ "type": "Feature", "properties": { "school": "高中", "school_nam": "私立景文高中", "address": "臺北市文山區木新里保儀路127號", "telephone": "02-2939-0310", "lat": "24.985369", "lon": "121.567394" }, "geometry": { "type": "Point", "coordinates": [ 121.567394, 24.985369 ] } },
{ "type": "Feature", "properties": { "school": "高中", "school_nam": "私立文德女中", "address": "臺北市內湖區紫陽里成功路3段70號", "telephone": "02-2790-4570", "lat": "25.077576", "lon": "121.589754" }, "geometry": { "type": "Point", "coordinates": [ 121.589754, 25.077576 ] } },
{ "type": "Feature", "properties": { "school": "高中", "school_nam": "私立方濟中學", "address": "臺北市內湖區紫星里成功路三段61號", "telephone": "02-2791-0278", "lat": "25.07732", "lon": "121.590183" }, "geometry": { "type": "Point", "coordinates": [ 121.590183, 25.07732 ] } },
{ "type": "Feature", "properties": { "school": "高中", "school_nam": "私立達人女中", "address": "臺北市內湖區湖濱里內湖路2段314號", "telephone": "02-2795-6899", "lat": "25.081258", "lon": "121.58763" }, "geometry": { "type": "Point", "coordinates": [ 121.58763, 25.081258 ] } },
{ "type": "Feature", "properties": { "school": "高中", "school_nam": "私立泰北高中", "address": "臺北市士林區福林里福林路240號", "telephone": "02-2882-5560", "lat": "25.097468", "lon": "121.534036" }, "geometry": { "type": "Point", "coordinates": [ 121.534036, 25.097468 ] } },
{ "type": "Feature", "properties": { "school": "高中", "school_nam": "私立華興中學", "address": "臺北市士林區芝山里仰德大道1段101號", "telephone": "02-2831-6834", "lat": "25.104604", "lon": "121.538208" }, "geometry": { "type": "Point", "coordinates": [ 121.538208, 25.104604 ] } },
{ "type": "Feature", "properties": { "school": "高中", "school_nam": "私立薇閣高中", "address": "臺北市北投區中心里珠海路50號", "telephone": "02-2892-5332", "lat": "25.139958", "lon": "121.504569" }, "geometry": { "type": "Point", "coordinates": [ 121.504569, 25.139958 ] } },
{ "type": "Feature", "properties": { "school": "高中", "school_nam": "私立十信高中", "address": "臺北市北投區北投路二段55號", "telephone": "02-2892-1166", "lat": "25.133622", "lon": "121.496722" }, "geometry": { "type": "Point", "coordinates": [ 121.496722, 25.133622 ] } },
{ "type": "Feature", "properties": { "school": "高職", "school_nam": "市立松山家商", "address": "臺北市信義區松山路655號", "telephone": "02-2726-1118", "lat": "25.03483", "lon": "121.580164" }, "geometry": { "type": "Point", "coordinates": [ 121.580164, 25.03483 ] } },
{ "type": "Feature", "properties": { "school": "高職", "school_nam": "市立松山工農", "address": "臺北市信義區忠孝東路5段236巷15號", "telephone": "02-2722-6616", "lat": "25.039852", "lon": "121.572041" }, "geometry": { "type": "Point", "coordinates": [ 121.572041, 25.039852 ] } },
{ "type": "Feature", "properties": { "school": "高職", "school_nam": "市立大安高工", "address": "臺北市大安區龍圖里復興南路2段52號", "telephone": "02-2709-1630", "lat": "25.031972", "lon": "121.543303" }, "geometry": { "type": "Point", "coordinates": [ 121.543303, 25.031972 ] } },
{ "type": "Feature", "properties": { "school": "高職", "school_nam": "市立木柵高工", "address": "臺北市文山區萬芳里木柵路4段77號", "telephone": "02-2230-0506", "lat": "24.994813", "lon": "121.57153" }, "geometry": { "type": "Point", "coordinates": [ 121.57153, 24.994813 ] } },
{ "type": "Feature", "properties": { "school": "高職", "school_nam": "市立南港高工", "address": "臺北市南港區南港里興中路29號", "telephone": "02-2782-5432", "lat": "25.056335", "lon": "121.607192" }, "geometry": { "type": "Point", "coordinates": [ 121.607192, 25.056335 ] } },
{ "type": "Feature", "properties": { "school": "高職", "school_nam": "市立內湖高工", "address": "臺北市內湖區港墘里內湖路1段520號", "telephone": "02-2657-4874", "lat": "25.079737", "lon": "121.575448" }, "geometry": { "type": "Point", "coordinates": [ 121.575448, 25.079737 ] } },
{ "type": "Feature", "properties": { "school": "高職", "school_nam": "市立士林高商", "address": "臺北市士林區後港里士商路150號", "telephone": "02-2831-3114", "lat": "25.094992", "lon": "121.516347" }, "geometry": { "type": "Point", "coordinates": [ 121.516347, 25.094992 ] } },
{ "type": "Feature", "properties": { "school": "高職", "school_nam": "私立育達家商", "address": "臺北市松山區美仁里寧安街12號", "telephone": "02-2570-6767", "lat": "25.04964", "lon": "121.554349" }, "geometry": { "type": "Point", "coordinates": [ 121.554349, 25.04964 ] } },
{ "type": "Feature", "properties": { "school": "高職", "school_nam": "私立協和工商", "address": "臺北市信義區忠孝東路5段790巷27號", "telephone": "02-2726-5775", "lat": "25.042623", "lon": "121.583481" }, "geometry": { "type": "Point", "coordinates": [ 121.583481, 25.042623 ] } },
{ "type": "Feature", "properties": { "school": "高職", "school_nam": "私立東方工商", "address": "臺北市大安區信義路四段186巷8號", "telephone": "02-2755-4616", "lat": "25.032145", "lon": "121.551491" }, "geometry": { "type": "Point", "coordinates": [ 121.551491, 25.032145 ] } },
{ "type": "Feature", "properties": { "school": "高職", "school_nam": "私立喬治工商", "address": "臺北市大安區基隆路2段172號", "telephone": "02-2738-6515", "lat": "25.026557", "lon": "121.554772" }, "geometry": { "type": "Point", "coordinates": [ 121.554772, 25.026557 ] } },
{ "type": "Feature", "properties": { "school": "高職", "school_nam": "私立開平餐飲", "address": "臺北市大安區復興南路2段148巷24號", "telephone": "02-2755-6939", "lat": "25.028532", "lon": "121.5424" }, "geometry": { "type": "Point", "coordinates": [ 121.5424, 25.028532 ] } },
{ "type": "Feature", "properties": { "school": "高職", "school_nam": "私立稻江護家", "address": "臺北市中山區新生北路三段55號", "telephone": "02-2595-5161", "lat": "25.065374", "lon": "121.528582" }, "geometry": { "type": "Point", "coordinates": [ 121.528582, 25.065374 ] } },
{ "type": "Feature", "properties": { "school": "高職", "school_nam": "私立開南商工", "address": "臺北市中正區東門里濟南路1段6號", "telephone": "02-2321-2666", "lat": "25.042417", "lon": "121.521837" }, "geometry": { "type": "Point", "coordinates": [ 121.521837, 25.042417 ] } },
{ "type": "Feature", "properties": { "school": "高職", "school_nam": "私立稻江高商", "address": "臺北市大同區國昌里民權西路225巷24號", "telephone": "02-2591-2001", "lat": "25.06434", "lon": "121.512039" }, "geometry": { "type": "Point", "coordinates": [ 121.512039, 25.06434 ] } },
{ "type": "Feature", "properties": { "school": "高職", "school_nam": "私立華岡藝校", "address": "臺北市士林區建業路73巷8號", "telephone": "02-2861-2354", "lat": "25.137097", "lon": "121.548964" }, "geometry": { "type": "Point", "coordinates": [ 121.548964, 25.137097 ] } },
{ "type": "Feature", "properties": { "school": "高職", "school_nam": "私立惇敘工商", "address": "臺北市北投區泉源路221號", "telephone": "02-2891-2630", "lat": "25.144515", "lon": "121.527053" }, "geometry": { "type": "Point", "coordinates": [ 121.527053, 25.144515 ] } },
{ "type": "Feature", "properties": { "school": "特教學校", "school_nam": "臺北市 市立啟聰學校", "address": "臺北市大同區重慶北路三段320號", "telephone": "02-2592-4446", "lat": "25.074698", "lon": "121.513589" }, "geometry": { "type": "Point", "coordinates": [ 121.513589, 25.074698 ] } },
{ "type": "Feature", "properties": { "school": "特教學校", "school_nam": "臺北市 市立啟智學校", "address": "臺北市士林區忠誠路二段207巷3號", "telephone": "02-2874-9117", "lat": "25.116551", "lon": "121.536363" }, "geometry": { "type": "Point", "coordinates": [ 121.536363, 25.116551 ] } },
{ "type": "Feature", "properties": { "school": "特教學校", "school_nam": "臺北市 市立啟明學校", "address": "臺北市士林區忠誠路二段207巷1號", "telephone": "02-2874-0670", "lat": "25.116545", "lon": "121.535223" }, "geometry": { "type": "Point", "coordinates": [ 121.535223, 25.116545 ] } },
{ "type": "Feature", "properties": { "school": "特教學校", "school_nam": "臺北市 市立文山特殊教育學校", "address": "臺北市文山區秀明路一段169號", "telephone": "02-8661-5183", "lat": "24.99144", "lon": "121.567647" }, "geometry": { "type": "Point", "coordinates": [ 121.567647, 24.99144 ] } },
{ "type": "Feature", "properties": { "school": "大專校院", "school_nam": "臺北市立大學（博愛校區）", "address": "臺北市中正區愛國西路1號", "telephone": "02-2311-3040", "lat": "25.035559", "lon": "121.51358" }, "geometry": { "type": "Point", "coordinates": [ 121.51358, 25.035559 ] } },
{ "type": "Feature", "properties": { "school": "大專校院", "school_nam": "臺北市立大學（天母校區）", "address": "臺北市士林區忠誠路二段101號", "telephone": "02-2871-8288", "lat": "25.11624", "lon": "121.536531" }, "geometry": { "type": "Point", "coordinates": [ 121.536531, 25.11624 ] } },
{ "type": "Feature", "properties": { "school": "大專校院", "school_nam": "國立政治大學", "address": "臺北市文山區指南路2段64號", "telephone": "02-2939-3091", "lat": "24.987419", "lon": "121.576504" }, "geometry": { "type": "Point", "coordinates": [ 121.576504, 24.987419 ] } },
{ "type": "Feature", "properties": { "school": "大專校院", "school_nam": "國立臺灣大學", "address": "臺北市大安區羅斯福路4段1號", "telephone": "02-3366-3366", "lat": "25.016981", "lon": "121.533701" }, "geometry": { "type": "Point", "coordinates": [ 121.533701, 25.016981 ] } },
{ "type": "Feature", "properties": { "school": "大專校院", "school_nam": "國立臺灣師範大學", "address": "臺北市大安區和平東路1段162號", "telephone": "02-7734-1111", "lat": "25.026455", "lon": "121.527571" }, "geometry": { "type": "Point", "coordinates": [ 121.527571, 25.026455 ] } },
{ "type": "Feature", "properties": { "school": "大專校院", "school_nam": "國立陽明大學", "address": "臺北市北投區立農街2段155號", "telephone": "02-2826-7000", "lat": "25.119651", "lon": "121.513309" }, "geometry": { "type": "Point", "coordinates": [ 121.513309, 25.119651 ] } },
{ "type": "Feature", "properties": { "school": "大專校院", "school_nam": "國立臺灣科技大學", "address": "臺北市大安區基隆路四段43號", "telephone": "02-2733-3141", "lat": "25.013743", "lon": "121.540624" }, "geometry": { "type": "Point", "coordinates": [ 121.540624, 25.013743 ] } },
{ "type": "Feature", "properties": { "school": "大專校院", "school_nam": "國立臺北科技大學", "address": "臺北市忠孝東路三段1號", "telephone": "02-2771-2171", "lat": "25.042214", "lon": "121.535515" }, "geometry": { "type": "Point", "coordinates": [ 121.535515, 25.042214 ] } },
{ "type": "Feature", "properties": { "school": "大專校院", "school_nam": "國立臺北藝術大學", "address": "臺北市北投區學園路1號", "telephone": "02-2896-1000#1553", "lat": "25.129937", "lon": "121.46619" }, "geometry": { "type": "Point", "coordinates": [ 121.46619, 25.129937 ] } },
{ "type": "Feature", "properties": { "school": "大專校院", "school_nam": "國立臺北教育大學", "address": "臺北市和平東路2段134號", "telephone": "02-2732-1104", "lat": "25.024606", "lon": "121.544709" }, "geometry": { "type": "Point", "coordinates": [ 121.544709, 25.024606 ] } },
{ "type": "Feature", "properties": { "school": "大專校院", "school_nam": "國立臺北護理健康大學", "address": "臺北市北投區明德路365號", "telephone": "02-2822-7101", "lat": "25.117549", "lon": "121.521347" }, "geometry": { "type": "Point", "coordinates": [ 121.521347, 25.117549 ] } },
{ "type": "Feature", "properties": { "school": "大專校院", "school_nam": "國立臺北商業大學", "address": "臺北市中正區濟南路一段321號", "telephone": "02-3322-2777", "lat": "25.041947", "lon": "121.525532" }, "geometry": { "type": "Point", "coordinates": [ 121.525532, 25.041947 ] } },
{ "type": "Feature", "properties": { "school": "大專校院", "school_nam": "國立臺灣戲曲學院", "address": "臺北市內湖區內湖路二段177號", "telephone": "02-2796-2666", "lat": "25.081468", "lon": "121.586589" }, "geometry": { "type": "Point", "coordinates": [ 121.586589, 25.081468 ] } },
{ "type": "Feature", "properties": { "school": "大專校院", "school_nam": "東吳大學", "address": "臺北市士林區臨溪路70號", "telephone": "02-2881-9471#9", "lat": "25.094446", "lon": "121.545752" }, "geometry": { "type": "Point", "coordinates": [ 121.545752, 25.094446 ] } },
{ "type": "Feature", "properties": { "school": "大專校院", "school_nam": "中國文化大學", "address": "臺北市士林區華岡路55號", "telephone": "02-2861-0511", "lat": "25.137521", "lon": "121.540405" }, "geometry": { "type": "Point", "coordinates": [ 121.540405, 25.137521 ] } },
{ "type": "Feature", "properties": { "school": "大專校院", "school_nam": "世新大學", "address": "臺北市文山區木柵路1段17巷1號", "telephone": "02-2236-8225", "lat": "24.988624", "lon": "121.544099" }, "geometry": { "type": "Point", "coordinates": [ 121.544099, 24.988624 ] } },
{ "type": "Feature", "properties": { "school": "大專校院", "school_nam": "銘傳大學", "address": "臺北市士林區中山北路5段250號", "telephone": "02-2882-4564", "lat": "25.087199", "lon": "121.52701" }, "geometry": { "type": "Point", "coordinates": [ 121.52701, 25.087199 ] } },
{ "type": "Feature", "properties": { "school": "大專校院", "school_nam": "實踐大學", "address": "臺北市中山區大直街70號", "telephone": "02-2538-1111", "lat": "25.083587", "lon": "121.546234" }, "geometry": { "type": "Point", "coordinates": [ 121.546234, 25.083587 ] } },
{ "type": "Feature", "properties": { "school": "大專校院", "school_nam": "大同大學", "address": "臺北市中山北路3段40號", "telephone": "02-2182-2928", "lat": "25.06684", "lon": "121.52221" }, "geometry": { "type": "Point", "coordinates": [ 121.52221, 25.06684 ] } },
{ "type": "Feature", "properties": { "school": "大專校院", "school_nam": "臺北醫學大學", "address": "臺北市信義區吳興街250號", "telephone": "02-2736-1661#2016", "lat": "25.02662", "lon": "121.562711" }, "geometry": { "type": "Point", "coordinates": [ 121.562711, 25.02662 ] } },
{ "type": "Feature", "properties": { "school": "大專校院", "school_nam": "中國科技大學", "address": "臺北市文山區興隆路三段56號", "telephone": "02-2931-3416", "lat": "24.999264", "lon": "121.555405" }, "geometry": { "type": "Point", "coordinates": [ 121.555405, 24.999264 ] } },
{ "type": "Feature", "properties": { "school": "大專校院", "school_nam": "德明財經科技大學", "address": "臺北市內湖區環山路一段56號", "telephone": "02-2658-5801", "lat": "25.086493", "lon": "121.565626" }, "geometry": { "type": "Point", "coordinates": [ 121.565626, 25.086493 ] } },
{ "type": "Feature", "properties": { "school": "大專校院", "school_nam": "中華學校財團法人中華科技大學", "address": "臺北市南港區研究院路三段245號", "telephone": "02-2782-1862", "lat": "25.033595", "lon": "121.609915" }, "geometry": { "type": "Point", "coordinates": [ 121.609915, 25.033595 ] } },
{ "type": "Feature", "properties": { "school": "大專校院", "school_nam": "城市學校財團法人臺北城市科技大學", "address": "臺北市北投區學園路2號", "telephone": "02-2892-7154#3200", "lat": "25.131337", "lon": "121.468056" }, "geometry": { "type": "Point", "coordinates": [ 121.468056, 25.131337 ] } },
{ "type": "Feature", "properties": { "school": "大專校院", "school_nam": "康寧學校財團法人康寧大學", "address": "台北市內湖區康寧路三段75巷137號", "telephone": "02-2632-1181", "lat": "25.075185", "lon": "121.61006" }, "geometry": { "type": "Point", "coordinates": [ 121.61006, 25.075185 ] } },
{ "type": "Feature", "properties": { "school": "大專校院", "school_nam": "學校財團法人中華浸信會基督教台灣浸會神學院", "address": "臺北市吳興街394巷1號", "telephone": "02-2723-9500#143", "lat": "25.02449", "lon": "121.56695" }, "geometry": { "type": "Point", "coordinates": [ 121.56695, 25.02449 ] } },
{ "type": "Feature", "properties": { "school": "大專校院", "school_nam": "台灣神學研究學院", "address": "台北市士林區仰德大道二段二巷20號", "telephone": "02-2882-2370", "lat": "25.101637", "lon": "121.540901" }, "geometry": { "type": "Point", "coordinates": [ 121.540901, 25.101637 ] } },
{ "type": "Feature", "properties": { "school": "大專校院", "school_nam": "國防醫學院", "address": "台北市內湖區民權東路6段161號", "telephone": "02-8792-3100", "lat": "25.070854", "lon": "121.59539" }, "geometry": { "type": "Point", "coordinates": [ 121.59539, 25.070854 ] } }
]
}
